id,date,latitude,longitude,place_desc,title,description,source,links,filters
UW0001,2022-01-21,52.349306,30.393528,Belarus - Gomel - Rechytsa,,Train transporting russian military equipment,CENINFORES,['https://twitter.com/MotolkoHelp/status/1484436102295523329'],[]
UW0002,2022-01-20,53.303394,28.636886,Belarus - Mahilyow - Asipovicky,,Iskender missile system spotted for alleged exercise,CENINFORES,['https://twitter.com/MotolkoHelp/status/1484446475773960192'],[]
UW0003,2022-01-20,53.299663,28.645682,Belarus - Mahilyow - Asipovicky,,,CENINFORES,['https://twitter.com/MotolkoHelp/status/1484482329452204032'],[]
UW0004,2022-01-21,52.349106,30.386392,Belarus - Gomel - Rechytsa,,Large number of tanks gathered,CENINFORES,['https://twitter.com/GirkinGirkin/status/1484580547892592647'],[]
UW0005,2022-01-22,52.498942,39.957452,Russia - Lipetsk - Gryazi,,Train transporting russian military equipment,CENINFORES,['https://twitter.com/GirkinGirkin/status/1484684181410131970'],[]
UW0006,2022-01-23,52.455113,30.985199,Belarus - Gomel - Gomel,,Train transporting russian military equipment,CENINFORES,['https://twitter.com/MarQs__/status/1485235147997917187'],[]
UW0007,2022-01-22,54.79738,32.03637,Russia - Smolensk - Zadneprovskiy Rayon,,Train transporting russian military equipment,CENINFORES,['https://twitter.com/GirkinGirkin/status/1484949051590205449'],[]
UW0008,2022-01-23,53.888186,27.57932,Belarus - Minsk - Minsk,,Train transporting russian military equipment,CENINFORES,['https://twitter.com/MotolkoHelp/status/1485579157060866049'],[]
UW0009,2022-01-22,52.349106,30.386392,Belarus - Gomel - Rechytsa,,russian military equipment being unloaded,CENINFORES,['https://twitter.com/MarQs__/status/1485244257703460867'],[]
UW0010,2022-01-21,52.349106,30.386392,Belarus - Gomel - Rechytsa,,Train transporting russian military equipment,CENINFORES,['https://twitter.com/GirkinGirkin/status/1484505789452754946'],[]
UW0011,2022-01-17,55.19393,80.297932,Russia - Novosibirsk Oblast - Karagat,,Train transporting russian military equipment,CENINFORES,['https://twitter.com/GirkinGirkin/status/1483070921304940547'],[]
UW0012,2022-01-25,43.014496,47.4379,Russia - Dagastan - Makhachkala,,Train transporting russian military equipment,CENINFORES,['https://twitter.com/GirkinGirkin/status/1485930045860458496'],[]
UW0013,2022-01-12,56.068908,92.918602,Russia - Novosibirsk - Krasnoyarsk,,Train transporting russian military equipment,CENINFORES,['https://twitter.com/GirkinGirkin/status/1481246660588093441'],[]
UW0014,2022-01-27,53.063796,32.848094,Russia - Bryansk - Mglin,,"Low loaders carrying T-72s, one with mine plough",CENINFORES,['https://twitter.com/MarQs__/status/1486652617858158593'],[]
UW0015,2022-01-27,53.220415,34.382714,Russia - Bryansk - Bryansk,,Trucks carrying unknown military equipment,CENINFORES,['https://twitter.com/GirkinGirkin/status/1486659703891546115'],[]
UW0016,2022-01-26,52.140409,29.318373,Belarus - Gomel - Kalinkavichy,,Military equipment stationed around train tracks,CENINFORES,['https://twitter.com/GirkinGirkin/status/1486154729520574467'],[]
UW0017,2022-01-19,57.145359,65.522252,Russia - Tyumen - Tyumen,,Train transporting russian military equipment,CENINFORES,['https://twitter.com/GirkinGirkin/status/1484228889807409155'],[]
UW0018,2022-01-19,57.145359,65.522252,Russia - Tyumen - Tyumen,,Train transporting russian military equipment,CENINFORES,['https://twitter.com/GirkinGirkin/status/1484837416959627267'],[]
UW0019,2022-01-20,57.145359,65.522252,Russia - Tyumen - Tyumen,,Train transporting russian military equipment,CENINFORES,['https://www.tiktok.com/@alexpaul_1990/video/7056334111664819458?is_copy_url=1&is_from_webapp=v1'],[]
UW0020,2022-01-20,57.145359,65.522252,Russia - Tyumen - Tyumen,,Train transporting russian military equipment,CENINFORES,['https://twitter.com/GirkinGirkin/status/1485215101867200515'],[]
UW0021,2022-01-13,57.145359,65.522252,Russia - Tyumen - Tyumen,,Train transporting russian military equipment,CENINFORES,['https://twitter.com/GirkinGirkin/status/1485310938903367693'],[]
UW0022,2022-01-19,57.145359,65.522252,Russia - Tyumen - Tyumen,,Train transporting russian military equipment,CENINFORES,['https://twitter.com/GirkinGirkin/status/1484837601810993154'],[]
UW0023,2022-01-27,52.349109,30.387073,Belarus - Gomel - Rechytsa,,Train transporting russian military equipment,CENINFORES,['https://twitter.com/GirkinGirkin/status/1486709938810282000'],[]
UW0024,2022-01-27,46.881389,40.150298,Russia - Rostov - Kagal'nitskaya,,SAM missiles on the move,CENINFORES,['https://www.tiktok.com/@jora2506/video/7057843530831498498?is_from_webapp=1&sender_device=pc&web_id7028892818824480262'],[]
UW0025,2022-01-27,52.455986,30.984397,Belarus - Gomel - Gomel,,Multiple train loads of military equipement,CENINFORES,['https://twitter.com/CasusBellii/status/1486648257061298177'],[]
UW0026,2022-01-19,57.145359,65.522252,Russia - Tyumen - Tyumen,,Train transporting russian military equipment,CENINFORES,['https://www.tiktok.com/@alexpaul_1990/video/7055947746200636673?is_copy_url=1&is_from_webapp=v1'],[]
UW0027,2022-01-19,57.145359,65.522252,Russia - Tyumen - Tyumen,,Train transporting russian military equipment,CENINFORES,['https://www.tiktok.com/@alexpaul_1990/video/7055946974075440385?is_copy_url=1&is_from_webapp=v1'],[]
UW0028,2022-01-19,57.145359,65.522252,Russia - Tyumen - Tyumen,,Train transporting russian military equipment,CENINFORES,['https://www.tiktok.com/@alexpaul_1990/video/7055945726563568897?is_copy_url=1&is_from_webapp=v1'],[]
UW0029,2022-04-11,45.288098,36.229594,Ukraine - Crimea - None,,Convoy of miltary equipment,CENINFORES,['https://twitter.com/juzhanin/status/1487057498825764865'],[]
UW0030,2022-01-28,45.304616,36.277682,Ukraine - Crimea - None,,Logistics convoy,CENINFORES,['https://twitter.com/juzhanin/status/1487059379266465797'],[]
UW0031,2022-01-27,45.191496,36.655327,Russia - Krasnodar rai - None,,Train transporting russian military equipment,CENINFORES,['https://twitter.com/GirkinGirkin/status/1487074717555216389'],[]
UW0032,2022-01-29,45.002972,38.964889,Russia - Krasnodar rai - Krasnodar,,Train transporting russian military equipment,CENINFORES,['https://twitter.com/GirkinGirkin/status/1487433437292208132'],[]
UW0033,2022-01-29,45.002972,38.964889,Russia - Krasnodar rai - Krasnodar,,Train transporting russian military equipment,CENINFORES,['https://twitter.com/GirkinGirkin/status/1487433627306807297'],[]
UW0034,2022-01-29,52.348176,30.380419,Belarus - Gomel - Rechytsa,,Train transporting russian military equipment,CENINFORES,['https://twitter.com/GirkinGirkin/status/1487451465526435844'],[]
UW0035,2022-01-25,55.241871,34.307944,Belarus - Bryansk - Bryansk,,Convoy of miltary equipment,CENINFORES,['https://twitter.com/jp_clancy/status/1485980462451466240'],[]
UW0036,2022-01-25,55.50359,35.144514,Russia - Smolensk - None,,Logistics convoy,CENINFORES,['https://twitter.com/jp_clancy/status/1485957117555224580'],[]
UW0037,2022-01-25,55.421322,43.823666,Russia - Nizhny Novgorod - Arzamas,,Train transporting russian military equipment,CENINFORES,['https://www.tiktok.com/@frenk4940/video/7056881356541791489?is_copy_url=1&is_from_webapp=v1&q=frenk4940&t=1643480551848'],[]
UW0038,2022-01-25,52.052297,29.153349,Belarus - Gomel - Mazyr,,Train transporting russian military equipment,CENINFORES,['https://www.tiktok.com/@stas_283/video/7057057306021793029?is_copy_url=1&is_from_webapp=v1&q=stas_283&t=1643481691138'],[]
UW0039,2022-01-24,45.0441,39.110889,Russia - Krasnodar rai - Krasnodar,,Train transporting russian military equipment,CENINFORES,['https://twitter.com/GirkinGirkin/status/1485475887801937920'],[]
UW0040,2022-01-22,52.924819,36.021649,Russia - Oryol - Zavodskoy Rayon,,Train transporting russian military equipment,CENINFORES,['https://twitter.com/GirkinGirkin/status/1484791666024271874'],[]
UW0041b,2022-01-29,50.81899,40.64414,Russia - Voronezh - Buturlinovka,,Train transporting russian military equipment,CENINFORES,['https://www.tiktok.com/@user97580963417951/video/7058593644382522626?is_copy_url=1&is_from_webapp=v1'],[]
UW0042,2022-01-27,51.636441,38.929421,Russia - Voronezh - Divista,,Convoy of miltary equipment,CENINFORES,['https://twitter.com/4emberlen/status/1486776568118665218'],[]
UW0043,2022-01-27,51.669824,39.122653,Russia - Voronezh - Voronezh,,Convoy of miltary equipment,CENINFORES,['https://twitter.com/GirkinGirkin/status/1486934318425456644'],[]
UW0044,2022-01-24,53.211935,34.408736,Russia - Bryansk - Fokinskiy Rayon,,Multiple train loads of military equipement,CENINFORES,['https://www.youtube.com/watch?v=SA0QmOg6Vu8'],[]
UW0045,2022-01-24,52.475971,30.934431,Belarus - Gomel - Krasnoe,,Convoy of miltary equipment,CENINFORES,['https://www.tiktok.com/@vladislavzavadich3/video/7056698808381541637?is_copy_url=1&is_from_webapp=v1&q=vladislavsavadich&t=1643540661207'],[]
UW0046,2022-01-24,51.991183,29.115142,Belarus - Gomel - Kamenka,,Russian self-propelled howitzers on the move,CENINFORES,['https://www.tiktok.com/@leva235181/video/7057074329506417925?is_copy_url=1&is_from_webapp=v1&q=Leva235181&t=1643546183423'],[]
UW0047,2022-01-10,45.053722,41.916466,Russia - Stavropolskiy krai - Stavropol,,Convoy of miltary equipment,CENINFORES,['https://www.youtube.com/watch?v=ohY2GBG7yk8'],[]
UW0048,2022-01-24,52.085241,29.235666,Belarus - Gomel - Mazyr,,Train transporting russian military equipment,CENINFORES,['https://twitter.com/4emberlen/status/1485721493199892485'],[]
UW0049,2022-01-25,52.350031,30.404642,Belarus - Gomel - Rechytsa,,Train transporting russian military equipment,CENINFORES,['https://twitter.com/4emberlen/status/1485924749653983235'],[]
UW0052,2022-01-30,51.469283,39.553725,Russia - Voronezh - Rogachevka,,Russian boats on the move via land,CENINFORES,['https://twitter.com/GirkinGirkin/status/1487773497346732036'],[]
UW0053,2022-01-30,57.145359,65.522252,Russia - Tyumen - Tyumen,,Train transporting russian military equipment,CENINFORES,['https://www.tiktok.com/@alexpaul_1990/video/7058989146882247937?is_copy_url=1&is_from_webapp=v1'],[]
UW0054,2022-01-30,52.923684,36.081506,Russia - Oryol - Oryol,,Train transporting russian military equipment,CENINFORES,['https://twitter.com/GirkinGirkin/status/1487873819826139143'],[]
UW0055,2022-01-30,52.140611,29.342333,Belarus - Gomel - Kalinkavicy,,Train transporting russian military equipment,CENINFORES,['https://twitter.com/GirkinGirkin/status/1487871906216914946'],[]
UW0056,2022-01-29,52.429701,30.991176,Belarus - Gomel - Gomel,,Train transporting russian military equipment,CENINFORES,['https://twitter.com/4emberlen/status/1487842167053852674'],[]
UW0057,2022-01-29,51.81575,29.150833,Belarus - Gomel - Yelsk,,Train transporting russian military equipment,CENINFORES,['https://twitter.com/4emberlen/status/1487778133168304129'],[]
UW0058,2022-01-31,53.215688,34.596825,Russia - Bryansk Oblast - Bryansk,,Train transporting russian military equipment,CENINFORES,['https://twitter.com/GirkinGirkin/status/1488028300941434881'],[]
UW0061,2022-01-31,42.987378,47.504169,Russia - Dagestan - Makhachkala,,Soldiers preparing to board a train in Dagestan,CENINFORES,['https://twitter.com/GirkinGirkin/status/1488115563754885122'],[]
UW0062,2022-01-31,57.607466,39.848765,Russia - Yaroslavl Oblast - Yaroslavl,,Train transporting russian military equipment,CENINFORES,['https://twitter.com/GirkinGirkin/status/1488127790583009281'],[]
UW0063,2022-01-31,66.072117,33.068848,Russia - Karelia - louhi,,Train transporting russian military equipment,CENINFORES,['https://twitter.com/GirkinGirkin/status/1488224940293771271'],[]
UW0064,2022-02-01,52.999632,49.767769,Russia - Samarskaya oblast - Novokuybyshevskoye Shosse,,Russian military equipment on the road,CENINFORES,['https://twitter.com/GirkinGirkin/status/1488434485884604418'],[]
UW0065,2022-01-16,57.145359,65.522252,Russia - Tyumen - Tyumen,,Train transporting russian military equipment,CENINFORES,['https://twitter.com/worldonalert/status/1483069960599523330'],[]
UW0066,2022-01-28,52.349423,30.395217,Belarus - Gomel - Rechytsa,,Train transporting russian military equipment,CENINFORES,['https://twitter.com/4emberlen/status/1487445178487119874'],[]
UW0067,2022-02-01,54.069385,27.211645,Belarus - None - Petrishki,,Russian military equipment moving in Belarus,CENINFORES,['https://twitter.com/GirkinGirkin/status/1488544876908187650'],[]
UW0068,2022-02-01,52.429772,30.991183,Belarus - Gomel - Gomel,,Russian military equipment being moved by train,CENINFORES,['https://twitter.com/GirkinGirkin/status/1488579685411921921'],[]
UW0069,2022-01-31,60.977078,40.250808,Russia - Arkhangelsk - Konosha,,Russian military equipment being moved by train,CENINFORES,['https://twitter.com/GirkinGirkin/status/1488420641661501445'],[]
UW0072,2022-02-01,52.349821,30.400919,Belarus - Gomel - Rechytsa,,Russian military equipment being moved by train,CENINFORES,['https://twitter.com/4emberlen/status/1488497810324475909'],[]
UW0073,2022-01-31,51.23397,36.69807,Russia - Kursk Oblast - Pristen,,Russian military equipment,CENINFORES,['https://twitter.com/4emberlen/status/1488496031901917184'],[]
UW0074,2022-01-31,52.357323,30.684277,Belarus - Gomel - Abramovka,,Russian military equipment moving in Belarus,CENINFORES,['https://www.tiktok.com/@chisto_mama/video/7059050323675073797?is_copy_url=1&is_from_webapp=v1&q=chisto_mama&t=1643805113462'],[]
UW0075,2022-02-01,52.357323,30.684277,Belarus - Gomel - Abramovka,,Russian military equipment moving in Belarus,CENINFORES,['https://www.tiktok.com/@kostyan_1986_/video/7059752758785658118?is_copy_url=1&is_from_webapp=v1&q=Kostyan_1986_&t=1643805498136'],[]
UW0076,2022-02-02,43.787218,43.969123,Russia - Kabardino-Balkarian Republic - Prokhladny,,Convoy of chechens moving West,CENINFORES,['https://twitter.com/GirkinGirkin/status/1488749359911079941'],[]
UW0079,2022-02-03,44.942333,38.917917,Russia - Adygea Republic - Enem,,Train transporting russian military equipment,CENINFORES,['https://twitter.com/GirkinGirkin/status/1489297244566302726'],[]
UW0080,2022-02-05,51.648156,35.948542,Russia - Kursk - Pryamitsyno,,Train transporting russian military equipment,CENINFORES,['https://twitter.com/GirkinGirkin/status/1489829249167106049'],[]
UW0081,2022-02-05,50.656477,36.694563,Russia - Belgorod - Novosadovyi,,Heavy weoponry and logistics convoy,CENINFORES,['https://twitter.com/GirkinGirkin/status/1489964591736102912'],[]
UW0082,2022-02-06,51.212,36.277639,Russia - Kursk - Oboyan,,Heavy weoponry and logistics convoy,CENINFORES,['https://twitter.com/4emberlen/status/1490472689273823233'],[]
UW0083,2022-02-07,51.159799,36.382767,Russia - Kursk - Zorino,,New  military camp being established,CENINFORES,['https://twitter.com/Michael1Sheldon/status/1490502986715516931'],[]
UW0084,2022-02-06,52.749584,32.256918,Russia - Bryansk - Klintsy,,Heavy weoponry on the move,CENINFORES,['https://twitter.com/GirkinGirkin/status/1490309374274904065'],[]
UW0085,2022-02-06,47.260406,39.651867,Russia - Rostov - Rostov-on-don,,Heavy weoponry on the move,CENINFORES,['https://twitter.com/GirkinGirkin/status/1490364203080863745'],[]
UW0086,2022-02-07,51.410602,34.900503,Russia - Kursk - Korenenvo,,Train transporting russian military equipment,CENINFORES,['https://twitter.com/Michael1Sheldon/status/1490600036878716929'],[]
UW0087,2022-02-07,51.414613,34.900497,Russia - Kursk - Korenenvo,,Logisitcs stationed near train tracks,CENINFORES,['https://twitter.com/Michael1Sheldon/status/1490601026428313601'],[]
UW0088,2022-02-07,51.410602,34.900503,Russia - Kursk - Korenenvo,,Train transporting russian military equipment,CENINFORES,['https://twitter.com/Michael1Sheldon/status/1490608655816970241'],[]
UW0089,2022-02-07,48.92373,40.376717,Russia - Rostov - Millerovo,,Train transporting russian military equipment,CENINFORES,['https://twitter.com/GirkinGirkin/status/1490766954503757826'],[]
UW0092,2022-02-09,55.10955,36.625588,Russia - Kaluzhskaya - Obninsk,,Transportation of tanks,CENINFORES,['https://twitter.com/GirkinGirkin/status/1491221587768807424'],[]
UW0093,2022-02-08,50.613615,37.197322,Russia - Belgorod - Karaichnoe,,Radio relay station,CENINFORES,['https://twitter.com/Michael1Sheldon/status/1490953643029577728'],[]
UW0094,2022-02-07,45.262083,35.907066,Ukraine - Crimea - Leninskoye,,Convoy of heavy weaponry on the move,CENINFORES,['https://twitter.com/GirkinGirkin/status/1490621504333230085'],[]
UW0095,2022-02-08,51.580447,34.675445,Russia - Kursk - Rylsk,,Convoy of heavy weaponry on the move,CENINFORES,['https://twitter.com/4emberlen/status/1491085146531201025'],[]
UW0096,2022-02-07,51.417205,34.901391,Russia - Kursk - Korenevo,,Train transporting heavy weaponry,CENINFORES,['https://twitter.com/GirkinGirkin/status/1490699410489192458'],[]
UW0097,2022-02-08,47.40474,38.92011,Russia - Rostov - Pokrovskoe,,Tanks unloaded,CENINFORES,['https://twitter.com/GirkinGirkin/status/1491080325384257537'],[]
UW0098,2022-02-08,55.418838,36.871511,Russia - Moscow - Yabloko,,Train transporing medical trucks,CENINFORES,['https://twitter.com/GirkinGirkin/status/1491108245678993410'],[]
UW0099,2022-02-08,50.496498,36.389863,Russia - Belgorod - Veselaya Lopan,,Heavy weaponry stationed in field,CENINFORES,['https://twitter.com/herooftheday10/status/1490966404950278145'],[]
UW0100,2022-02-07,51.648611,36.151111,Russia - Kursk - Kursk,,Rocket launch systems on the move,CENINFORES,['https://twitter.com/GirkinGirkin/status/1490682550343421954'],[]
UW0101,2022-02-09,48.45375,40.340861,Russia - Rostov - None,,Movement of heavy weaponry,CENINFORES,['https://twitter.com/GirkinGirkin/status/1491421002613792768'],[]
UW0102,2022-02-09,51.789722,36.434778,"Russia - Postoyalye Dvory, Kurskaya - Avtodoroga Kursk-Shchigry",,Movement of heavy weaponry,CENINFORES,['https://twitter.com/4emberlen/status/1491418129414914048'],[]
UW0103,2022-02-03,53.948861,30.326889,Belarus - None - Chapayeva,,Movement of heavy weaponry,CENINFORES,['https://twitter.com/4emberlen/status/1491367231812702215'],[]
UW0104,2022-02-09,51.558928,34.688654,Russia - Kursk - Rylsk,,Convoy of heavy weaponry,CENINFORES,['https://twitter.com/MarQs__/status/1491374811553333250'],[]
UW0105,2022-02-09,51.278757,37.916347,Russia - Belgorod Oblast - Stary Oskol,,Convoy of heavy weaponry,CENINFORES,['https://twitter.com/herooftheday10/status/1491549484798644224'],[]
UW0104,2022-02-09,51.558928,34.688654,Russia - Kursk - Rylsk,,Convoy of heavy weaponry,CENINFORES,['https://twitter.com/MarQs__/status/1491374811553333250'],[]
UW0105,2022-02-09,51.278757,37.916347,Russia - Belgorod Oblast - Stary Oskol,,Convoy of heavy weaponry,CENINFORES,['https://twitter.com/herooftheday10/status/1491549484798644224'],[]
UW0106,2022-02-09,50.497111,36.389639,Russia - Belgorod Oblast - Veselaya Lopan,,Tank and logistical encampment,CENINFORES,['https://twitter.com/GirkinGirkin/status/1491283672359923713'],[]
UW0107,2022-02-09,54.456194,36.283333,Russia - Kaluga Oblast - Kalashnikov,,Logistical Equipment moving,CENINFORES,['https://twitter.com/GirkinGirkin/status/1491358100410224640'],[]
UW0108,2022-02-08,45.03225,39.045944,Russia - None - Krasnodar,,Movement of heavy weaponry in the street,CENINFORES,['https://twitter.com/4emberlen/status/1491079146797420547'],[]
UW0109,2022-02-08,52.8415,32.677222,Russia - Bryansk - Unecha,,Troop patrols,CENINFORES,['https://twitter.com/GirkinGirkin/status/1491127848559472642'],[]
UW0110,2022-02-08,45.233722,37.020889,Russia - Krassnodar - Vyshesteblievskaya,,Movement of logistical supplies,CENINFORES,['https://twitter.com/GirkinGirkin/status/1491118036694487040'],[]
UW0111,2022-02-07,53.263528,34.405583,Russia - Bryansk - Bryansk,,Trains moving heavy weaponry,CENINFORES,['https://twitter.com/GirkinGirkin/status/1490765928916783108'],[]
UW0112,2022-02-08,51.636889,35.269167,Russia - Kursk - Lgov,,Heavy weaponry and logistics movement,CENINFORES,['https://twitter.com/4emberlen/status/1491087825579966467'],[]
UW0113,2022-02-07,55.533,36.368417,Russia - Moscow Oblast - None,,Logistical Equipment moving,CENINFORES,['https://twitter.com/JC_Monitoring/status/1490804886950273024'],[]
UW0114,2022-02-07,49.407944,40.573556,Russia - Rostovskaya oblast - Alekseevo-Lozovskoe,,Logistical Equipment moving,CENINFORES,['https://twitter.com/JC_Monitoring/status/1490811870453940231'],[]
UW0115,2022-02-06,56.26675,41.855583,Russia - Vladimir Oblast - Ulitsa Shosseynaya,,Trains moving tanks,CENINFORES,['https://twitter.com/GirkinGirkin/status/1490306155540844544'],[]
UW0116,2022-02-06,51.212,36.277639,Russia - Kursk - Oboyan,,Movement of logistical supplies,CENINFORES,['https://twitter.com/4emberlen/status/1490472689273823233'],[]
UW0117,2022-02-07,50.750583,40.047333,Russia - Voronezh - None,,Movement of logistical supplies,CENINFORES,['https://twitter.com/4emberlen/status/1490414225579286528'],[]
UW0118,2022-02-06,51.261333,37.930139,Russia - Belgorod - None,,Movement of logistical supplies,CENINFORES,['https://twitter.com/GirkinGirkin/status/1490270307558510593'],[]
UW0119,2022-01-17,56.859233,60.613233,Russia - Sverdlovskaya - Yekaterinburg,,Train moving heavy weaponry,CENINFORES,['https://twitter.com/GirkinGirkin/status/1482924741400924160'],[]
UW0120,2022-01-16,56.240307,90.00305,Russia - Krasnoyarsk Krai - Kritovo,,Train moving heavy weaponry,CENINFORES,['https://twitter.com/4emberlen/status/1482809379166597121'],[]
UW0121,2022-02-06,48.670528,40.368222,Russia - Rostov - None,,Movement of logistical supplies,CENINFORES,['https://twitter.com/GirkinGirkin/status/1490368912244056064'],[]
UW0122,2022-01-15,54.205432,49.643859,Russia - Ulyanovsk - Dimitrovgrad,,Train moving heavy weaponry,CENINFORES,['https://twitter.com/GirkinGirkin/status/1482434887621689347'],[]
UW0123,2022-01-16,53.3144,34.308615,Russia - Bryansk - Bryansk,,Train moving heavy weaponry,CENINFORES,['https://twitter.com/GirkinGirkin/status/1482540686163513345'],[]
UW0124,2022-01-12,56.022341,93.113378,Russia - Krasnoyarsk Krai - Berezovka,,Train moving heavy weaponry,CENINFORES,['https://twitter.com/4emberlen/status/1481202086960406530'],[]
UW0125,2022-01-09,51.623273,114.346724,Russia - Zabaykalsky Krai - Karymskoe,,Train moving heavy weaponry,CENINFORES,['https://twitter.com/GirkinGirkin/status/1479494074763730946'],[]
UW0126,2022-02-06,49.056972,40.532806,Russia - None - None,,Movement of logistical supplies,CENINFORES,['https://twitter.com/GirkinGirkin/status/1490390156729274371'],[]
UW0127,2022-02-06,47.003472,39.731083,Russia - Rostov - None,,Movement of heavy weaponry and logistical supplies,CENINFORES,['https://twitter.com/GirkinGirkin/status/1490355701302140929'],[]
UW0128,2022-02-06,52.287417,30.320667,Belarus - None - None,,Movement of heavy weaponry and logistical supplies,CENINFORES,['https://twitter.com/GirkinGirkin/status/1490310167459684357'],[]
UW0129,2022-02-09,53.121259,34.970163,Russia - Bryansk - Karackev,,Logistics convoy on the move,CENINFORES,['https://twitter.com/GirkinGirkin/status/1491446071003734016'],[]
UW0130,2022-02-10,47.137722,39.87525,Russia - Rostov - None,,Movement of logistics,CENINFORES,['https://twitter.com/theragex/status/1491552108885286917'],[]
UW0131,2022-02-09,51.016056,37.207722,Russia - Belgorod - None,,Movement of weaponry,CENINFORES,['https://twitter.com/4emberlen/status/1491525567308574730'],[]
UW0132,2022-02-09,47.094833,39.576306,Russia - Rostov - None,,Movement of logistics,CENINFORES,['https://twitter.com/GirkinGirkin/status/1491479489871818753'],[]
UW0132,2022-02-09,47.094833,39.576306,Russia - Rostov - None,,Movement of logistics,CENINFORES,['https://twitter.com/GirkinGirkin/status/1491479489871818753'],[]
UW0133,2022-02-05,51.651417,35.695583,Russia - Kursk - Kurchatov,,Movement of heavy weaponry,CENINFORES,['https://twitter.com/theragex/status/1490012932037619712'],[]
UW0134,2022-02-05,53.806917,28.888194,Belarus - Poplavy - None,,Movement of logistics,CENINFORES,['https://twitter.com/GirkinGirkin/status/1490045919789785098'],[]
UW0135,2022-02-05,53.413861,34.362778,Russia - Bryansk - None,,Movement of heavy weaponry,CENINFORES,['https://twitter.com/GirkinGirkin/status/1490034944579616773'],[]
UW0136,2022-02-05,42.822667,47.127222,Russia - Republic of Dagestan - Buynaksk,,Movement of soldiers,CENINFORES,['https://twitter.com/GirkinGirkin/status/1490027718376841223'],[]
UW0137,2022-02-05,42.823444,47.126139,Russia - Republic of Dagestan - Buynaksk,,Movement of heavy weaponry,CENINFORES,['https://twitter.com/GirkinGirkin/status/1490027970697830400'],[]
UW0138,2022-02-05,59.545,30.104833,Russia - Leningrad - Gatchina,,Movement of heavy weaponry,CENINFORES,['https://twitter.com/GirkinGirkin/status/1489988532475207685'],[]
UW0139,2022-02-05,47.243667,39.652889,Russia - Rostov-on-Don - Zheleznodorozhnyy Rayon,,Movement of heavy weaponry,CENINFORES,['https://twitter.com/GirkinGirkin/status/1489897503650717698'],[]
UW0140,2022-02-05,45.034722,39.028333,Russia - Krasnodar - Krasnodar,,Movement of heavy weaponry,CENINFORES,['https://twitter.com/GirkinGirkin/status/1489884110743126021'],[]
UW0141,2022-02-05,48.972611,40.452028,Russia - Rostov - None,,Movement of heavy weaponry,CENINFORES,['https://twitter.com/GirkinGirkin/status/1489896917798723584'],[]
UW0142,2022-02-04,54.5205,30.374361,Belarus - None - Orsha,,Movement of heavy weaponry,CENINFORES,['https://twitter.com/GirkinGirkin/status/1489663579921989635'],[]
UW0143,2022-02-04,51.324972,37.728611,Russia - Belograd Oblast - None,,Movement of logistics,CENINFORES,['https://twitter.com/GirkinGirkin/status/1489658755633537030'],[]
UW0144,2022-02-04,50.737111,36.871944,Russia - Belograd Oblast - None,,Movement of heavy weaponry,CENINFORES,['https://twitter.com/GirkinGirkin/status/1489586224872448003'],[]
UW0145,2022-02-04,52.951639,29.785583,Belarus - None - Krasnoberezhskaya Slobodka,,Movement of heavy weaponry and logistics,CENINFORES,['https://twitter.com/GirkinGirkin/status/1489447605281120256'],[]
UW0146,2022-02-03,46.632778,38.269139,Russia - Krasnodar Krai - Krasnoflotskii,,Movement of heavy weaponry,CENINFORES,['https://twitter.com/MarQs__/status/1489344683482431494'],[]
UW0147,2022-02-03,53.756111,33.2235,Russia - Bryansk - Kazennoe-Uzkoe,,Movement of heavy weaponry,CENINFORES,['https://twitter.com/GirkinGirkin/status/1489074598352203778'],[]
UW0148,2022-02-03,56.337667,30.544333,Russia - Velikiye Luki - Ulitsa Zaslonova,,Movement of logistics,CENINFORES,['https://twitter.com/GirkinGirkin/status/1489077319721439235'],[]
UW0149,2022-02-03,45.136694,35.354972,Ukraine - Crimea - M17,,Movement of heavy weaponry,CENINFORES,['https://twitter.com/MarQs__/status/1489308849525956616'],[]
UW0150,2022-02-03,54.508306,36.092889,Russia - Kaluga Oblast - Ugra,,Movement of heavy weaponry,CENINFORES,['https://twitter.com/GirkinGirkin/status/1489295152459964422'],[]
UW0151,2022-02-03,53.262806,34.406639,Russia - Bryansk - Bryansk,,Movement of heavy weaponry,CENINFORES,['https://twitter.com/GirkinGirkin/status/1489251957587922955'],[]
UW0152,2022-02-03,53.946,27.776444,Belarus - None - Kolodishchi,,Movement of heavy weaponry,CENINFORES,['https://twitter.com/MotolkoHelp/status/1489140479627345921'],[]
UW0153,2022-02-03,49.938972,40.509639,Russia - Voronezh - Boguchar,,Movement of logistics,CENINFORES,['https://twitter.com/GirkinGirkin/status/1489095352376610817'],[]
UW0154,2022-02-02,45.382583,38.41075,Russia - Krasnodar - Timashovsk,,Movement of logistics,CENINFORES,['https://twitter.com/GirkinGirkin/status/1488937592666173448'],[]
UW0155,2022-02-09,44.954879,43.882298,Russia - Stavropol Krai - Iskra,,Train with russian heavy weaponry,CENINFORES,['https://twitter.com/herooftheday10/status/1491319045471490048'],[]
UW0156,2022-02-09,47.56489,40.121701,Russia - Rostov - Starokovyl'nyi,,Tanks on the move,CENINFORES,['https://twitter.com/GirkinGirkin/status/1491470174523957263'],[]
UW0157,2022-02-09,50.741891,37.887646,Russia - Belgorod - Novy Oskol,,Convoy of heavy weaponry,CENINFORES,['https://twitter.com/herooftheday10/status/1491328464292827136'],[]
UW0158,2022-02-08,48.903814,40.464453,Russia - Rostov - Novospasovka,,Convoy of heavy weaponry,CENINFORES,['https://twitter.com/4emberlen/status/1491578786319581184'],[]
UW0159,2022-01-23,52.290249,30.363294,Belarus - Rechitsa - Volch'ya Gora,,Convoy of tanks parked in field,CENINFORES,['https://twitter.com/Michael1Sheldon/status/1485101678554755073'],[]
UW0160,2022-02-09,45.720696,38.982719,Russia - Krasnodar - None,,Convoy of tanks and logistics parked in the side of the road,CENINFORES,['https://twitter.com/4emberlen/status/1491912736799956992'],[]
UW0161,2022-02-09,51.101391,36.279723,Russia - Kursk - None,,Movement of tanks along the road,CENINFORES,['https://twitter.com/4emberlen/status/1491799876375494668'],[]
UW0162,2022-02-10,51.78024,29.506681,Belarus - Naroulia - None,,Movement of tanks along the road,CENINFORES,['https://twitter.com/4emberlen/status/1491909373458890759'],[]
UW0163,2022-02-08,54.76858,32.00164,Russia - None - Smolensk,,Movement of heavy weaponry in the city,CENINFORES,['https://twitter.com/Idzanagi4/status/1491815082074034182'],[]
UW0164,2022-02-09,51.723685,36.332136,Russia - Kursk - None,,Movement of logistics in the city,CENINFORES,['https://twitter.com/4emberlen/status/1491793384083574794'],[]
UW0165,2022-01-10,50.586836,36.585946,Russia - Belogrod - Ulitsa Zheleznodorozhnaya,,Movement of logistics in the city,CENINFORES,['https://twitter.com/4emberlen/status/1491800220308410368'],[]
UW0166,2022-02-09,51.788107,36.417329,Russia - Kursk - None,,Movement of logistics in the city,CENINFORES,['https://twitter.com/GirkinGirkin/status/1491473813036486657'],[]
UW0167,2022-02-10,54.750056,36.203528,Russia - Kaluga - None,,Movement of heavy weaponry in the city,CENINFORES,['https://twitter.com/4emberlen/status/1491778098265833472'],[]
UW0168,2022-02-10,51.718083,36.263083,Russia - Kursk - None,,Movement of heavy weaponry,CENINFORES,['https://twitter.com/GirkinGirkin/status/1491636860749324292'],[]
UW0169,2022-02-10,52.662861,36.372667,Russia - Oryol - None,,Movement of Logistics,CENINFORES,['https://twitter.com/4emberlen/status/1491773819412963335'],[]
UW0170,2022-02-10,51.785444,36.408917,Russia - Kursk - None,,Movement of heavy weaponry,CENINFORES,['https://twitter.com/4emberlen/status/1491574171624742914'],[]
UW0171,2022-02-10,48.902806,40.452167,Russia - Rostov - None,,Movement of Heavy weaponry,CENINFORES,['https://twitter.com/KyleJGlen/status/1491698045834215426'],[]
UW0172,2022-02-10,51.234622,36.698274,Russia - Kursk - Pristen,,Multiple tanks,CENINFORES,['https://twitter.com/Michael1Sheldon/status/1491828142528503811'],[]
UW0173,2022-02-10,50.496761,36.390334,Russia - Belogrod - Veselaya Lopan,,Multiple tanks stationed in field,CENINFORES,['https://twitter.com/GirkinGirkin/status/1491713890790608897'],[]
UW0174,2022-02-09,51.723685,36.332136,Russia - Belogrod - Khalino,,Military convoy,CENINFORES,['https://twitter.com/4emberlen/status/1491793384083574794'],[]
UW0175,2022-02-07,51.789722,36.434778,Russia - Kursk - Malinovyi,,Multiple Tanks stationed in field,CENINFORES,['https://twitter.com/4emberlen/status/1491418129414914048'],[]
UW0176,2022-02-09,51.583204,36.082854,Russia - Kursk - Selikhovy Dvory,,Tanks being transported,CENINFORES,['https://twitter.com/4emberlen/status/1491793997471240192'],[]
UW0177,2022-02-11,50.495117,36.388992,Russia - Belogrod - Veselaya Lopan,,Logistical equipment parked in the side of the road,CENINFORES,['https://twitter.com/GirkinGirkin/status/1492024634199449606'],[]
UW0178,2022-02-10,51.521417,38.020139,Russia - Kursk - Gorshechnoye,,Logistical equipment traveling within the town,CENINFORES,['https://twitter.com/GirkinGirkin/status/1491692861137502213'],[]
UW0179,2022-02-05,51.64808,35.94858,Russia - Kursk - None,,Tanks being moved by train,CENINFORES,['https://twitter.com/MarQs__/status/1489951175424229383'],[]
UW0180,2022-02-04,45.091159,37.782273,Russia - Krasnodar Krai - None,,Helicopter movement,CENINFORES,['https://twitter.com/Michael1Sheldon/status/1489458618898739200'],[]
UW0181,2022-02-03,57.799692,28.295503,Russia - None - Pskov,,Tanks being moved by train,CENINFORES,['https://twitter.com/Michael1Sheldon/status/1489321944617005062'],[]
UW0182,2022-02-02,52.357623,30.679974,Belarus - Abramovka - None,,Logistics movement along the highway,CENINFORES,['https://twitter.com/Michael1Sheldon/status/1488755442914316288'],[]
UW0183,2022-02-02,52.399397,30.127631,Belarus - Dneprik - None,,Movement of Krasukha-4 along the road,CENINFORES,['https://twitter.com/Michael1Sheldon/status/1488745284243005442'],[]
UW0184,2022-02-09,51.785927,36.410409,Russia - Kursk - None,,Tanks parked in the side of the road,CENINFORES,['https://twitter.com/MaksymOsint/status/1491187809184804867'],[]
UW0185,2022-02-09,50.7585,37.8723,Russia - Belograd - None,,Tanks moved by Train,CENINFORES,['https://twitter.com/GirkinGirkin/status/1491443717055860736'],[]
UW0186,2022-02-07,50.496875,36.389942,Russia - Belograd - Veselaya Lopan,,Tanks parked in the side of the road,CENINFORES,['https://twitter.com/4emberlen/status/1491420490388631552'],[]
UW0187,2022-02-08,53.21189,34.40884,Russia - Bryansk - None,,Heavy weaponry transported by train,CENINFORES,['https://twitter.com/4emberlen/status/1491363628486115332'],[]
UW0188,2022-02-07,47.246165,39.678457,Russia - Rostov - Rostov-on-Don,,Heavy weaponry transported by train,CENINFORES,['https://twitter.com/GirkinGirkin/status/1490746729439936515'],[]
UW0189,2022-02-07,47.759393,39.956042,Russia - Novoshakhtinsk - None,,Heavy weaponry transported by train,CENINFORES,['https://twitter.com/GirkinGirkin/status/1490617911467196417'],[]
UW0190,2022-02-08,50.496875,36.389942,Russia - Belograd - Veselaya Lopan,,Tanks parked on the side of the road,CENINFORES,['https://twitter.com/MarQs__/status/1490974832632025091'],[]
UW0191,2022-02-04,51.64824,35.96009,Russia - Kursk - Pryamitsyno,,Tanks transported by train,CENINFORES,['https://twitter.com/GirkinGirkin/status/1489919918283935745'],[]
UW0192,2022-02-11,51.56716,39.24672,Russia - Voronezh - Levoberezhnyy Rayon,,Tanks transported by train and unloaded,CENINFORES,['https://twitter.com/GirkinGirkin/status/1492213193250324487'],[]
UW0193,2022-02-11,51.56688,39.246731,Russia - Voronezh - Levoberezhnyy Rayon,,Tanks transported by train and unloaded,CENINFORES,['https://twitter.com/GirkinGirkin/status/1492198065775722499'],[]
UW0195,2022-02-12,51.567093,39.246908,Russia - Voronezh - Levoberezhnyy Rayon,,Tanks transported by train and unloaded,CENINFORES,['https://twitter.com/GirkinGirkin/status/1492416738595463169'],[]
UW0196,2022-02-11,51.566922,39.245968,Russia - Voronezh - Levoberezhnyy Rayon,,Large amount of tanks stationed and unloaded,CENINFORES,['https://twitter.com/GirkinGirkin/status/1492010307178410010'],[]
UW0197,2022-02-10,47.648135,40.023901,Russia - Rostov - None,,Multiple tanks stuck,CENINFORES,['https://twitter.com/4emberlen/status/1491875067554373641'],[]
UW0198,2022-02-08,50.496705,36.390037,Russia - Belograd - Veselaya Lopan,,Tanks parked on the side of the road,CENINFORES,['https://twitter.com/GirkinGirkin/status/1492288109454802951'],[]
UW0199,2022-02-12,52.536045,31.933512,Russia - Bryansk - Novozybkov,,Heavy military equipment on the move,CENINFORES,['https://twitter.com/GirkinGirkin/status/1492301252646129664'],[]
UW0200,2022-02-11,52.308881,31.147478,Belarus - Gomel - Pribytki,,Russian miliary camp,CENINFORES,['https://twitter.com/MotolkoHelp/status/1492198592580407297'],[]
UW0201,2022-02-13,51.567622,39.246848,Russia - Voronezh - Levoberezhnyy Rayon,,Tanks loaded on train,CENINFORES,['https://twitter.com/4emberlen/status/1493153776341028866'],[]
UW0202,2022-02-11,44.766673,33.865893,Ukraine - Crimea - None,,Tanks in field,CENINFORES,['https://twitter.com/Michael1Sheldon/status/1492329248052420610'],[]
UW0203,2022-02-11,44.766536,33.866923,Ukraine - Crimea - None,,Tanks in field,CENINFORES,['https://twitter.com/Michael1Sheldon/status/1492329377048244228'],[]
UW0204,2022-01-12,52.945276,36.577722,Russia - Oryol - Mokhovoe,,Train transporting russian military equipment,CENINFORES,['https://www.tiktok.com/@r_e_g_i_o_n_5_7/video/7063819874723695873?_r=1&_t=8PoNmoFB7DK&is_copy_url=1&is_from_webapp=v1'],[]
UW0205,2022-02-12,50.618404,38.66955,Russia - Belgorod - Alexeyevka,,Train transporting russian military equipment,CENINFORES,['https://twitter.com/herooftheday10/status/1492557954301759494'],[]
UW0206,2022-02-11,44.766353,33.867878,Ukraine - Crimea - None,,Tanks in field,CENINFORES,['https://twitter.com/herooftheday10/status/1492568241448923140'],[]
UW0207,2022-02-12,50.653372,36.53652,Russia - Belgorod - Belgorod,,Helicopters stationed in field,CENINFORES,['https://twitter.com/GirkinGirkin/status/1492599809320144896'],[]
UW0208,2022-02-12,50.661187,36.536578,Russia - Belgorod - Belgorod,,Helicopters landing in field,CENINFORES,['https://twitter.com/GirkinGirkin/status/1492707422938533888'],[]
UW0209,2022-02-12,52.945498,36.398242,Russia - Oryol - Zolotaryovo,,Train with military equipment,CENINFORES,['https://twitter.com/JC_Monitoring/status/1492465543533711362'],[]
UW0210,2022-02-13,52.290976,30.452764,Belarus - Gomel - None,,Convoy of military equipment,CENINFORES,['https://twitter.com/danvan71/status/1492871476751613952'],[]
UW0211,2022-02-13,52.289886,30.36134,Belarus - Gomel - Volch'ya Gora,,Convoy of military equipment,CENINFORES,['https://twitter.com/danvan71/status/1492871991082340357'],[]
UW0212,2022-02-12,50.430378,36.343892,Russia - Belgorod - None,,Convoy of military equipment,CENINFORES,['https://twitter.com/Michael1Sheldon/status/1492886621573812233'],[]
UW0213,2022-02-12,52.9406,36.0478,Russia - Oryol - Oryol,,Military lorrys driving through Oryol,CENINFORES,['https://twitter.com/GirkinGirkin/status/1492462835787513856'],[]
UW0214,2022-02-13,52.079384,35.128976,"Russia - Kursk - Novaya Pershina,",,Lorrys in convoys with police vehicles,CENINFORES,['https://twitter.com/JC_Monitoring/status/1492909267413778437'],[]
UW0215,2022-02-13,52.890158,30.03663,Belarus - None - Zhlobin,,Trains carring BMP3s,CENINFORES,['https://twitter.com/JC_Monitoring/status/1492924097826803717'],[]
UW0217,2022-02-05,52.523739,31.94846,Russia - Bryansk - Novozybkov,,Train transporting russian military equipment,CENINFORES,['https://twitter.com/GirkinGirkin/status/1489895328136536068'],[]
UW0218,2022-02-05,52.524341,31.948653,Russia - Bryansk - Novozybkov,,Tanks at train station,CENINFORES,['https://twitter.com/GirkinGirkin/status/1489894764577230851'],[]
UW0219,2022-02-13,45.099588,35.045849,Ukraine - Crimea - M17,,Tanks transported on the highway,CENINFORES,['https://twitter.com/4emberlen/status/1493010561189269506'],[]
UW0220,2022-02-13,53.800335,27.775971,Belarus - Privolnyi - None,,Logistics and weaponry transported on highway,CENINFORES,['https://twitter.com/4emberlen/status/1493002715412189186'],[]
UW0221,2022-02-13,50.613691,36.577962,Russia - Belgorod - Belogorod,,Logistics transported in the city,CENINFORES,['https://twitter.com/GirkinGirkin/status/1492955344041086981'],[]
UW0222,2022-02-13,52.151196,30.599526,Belarus - Kholmyech - None,,Heavy weaponry being transported through the highway,CENINFORES,['https://twitter.com/grad_harrison/status/1492917289649426439'],[]
UW0223,2022-02-12,51.263555,37.92892,Russia - Belgorod - Neznamovo,,Heavy weaponry and logistics being parked at the side of the road,CENINFORES,['https://twitter.com/4emberlen/status/1492922129850982408'],[]
UW0224,2022-02-12,51.746387,36.235038,Russia - Kursk Oblast - Kursk,,Heavy weaponry and logistics being transported through the city,CENINFORES,['https://twitter.com/GirkinGirkin/status/1492932352103886849'],[]
UW0225,2022-02-13,45.117603,35.252038,Ukraine - Crimea - M17,,Logistics being transported through the highway,CENINFORES,['https://twitter.com/herooftheday10/status/1492930970193993729'],[]
UW0226,2022-02-13,50.221596,38.187875,Russia - Belgorod - Rozhdestveno,,Heavy weaponry transported through the city,CENINFORES,['https://twitter.com/4emberlen/status/1492922819323310090'],[]
UW0227,2022-02-12,52.945479,36.39584,Russia - Oryol Oblast - None,,Logistics being transported by train,CENINFORES,['https://twitter.com/4emberlen/status/1492846363444498436'],[]
UW0228,2022-02-12,54.397701,37.492038,Russia - Tula Oblast - None,,Logistics being transported by train,CENINFORES,['https://twitter.com/GirkinGirkin/status/1492518373539864578'],[]
UW0229,2022-02-13,50.613297,36.57846,Russia - Belgorod - Belogorod,,Logistics transported in the city,CENINFORES,['https://twitter.com/GirkinGirkin/status/1492857534671200258'],[]
UW0230,2022-02-13,53.365229,28.597465,Belarus - Smyk - None,,Logistics transported in the city,CENINFORES,['https://twitter.com/herooftheday10/status/1492804755630047236'],[]
UW0231,2022-02-13,51.420224,34.90209,Russia - Kursk Oblast - Korenevo,,Logistics transported in the city,CENINFORES,['https://twitter.com/herooftheday10/status/1492850305070817285'],[]
UW0232,2022-02-13,51.99959,29.257314,Belarus - Raevskie - None,,Heavy weaponry being transported through the highway,CENINFORES,['https://twitter.com/herooftheday10/status/1492803318187442178'],[]
UW0233,2022-02-13,52.182308,29.873978,Belarus - Zashcheb'e - None,,Logistics being transported through the highway,CENINFORES,['https://twitter.com/4emberlen/status/1492807867593859074'],[]
UW0234,2022-02-12,52.98397,36.107849,Russia - Oryol - Moskovskoye Shosse,,Heavy weaponry being transported through the town,CENINFORES,['https://twitter.com/GirkinGirkin/status/1492618460265865217'],[]
UW0235,2022-02-12,51.786375,30.270733,Belarus - None - Brahin,,Logistics transported in the city,CENINFORES,['https://twitter.com/4emberlen/status/1492453208882614272'],[]
UW0236,2022-02-12,52.420638,37.639772,Russia - Oryol Oblast - Livny,,Logistics being parked on the side of the road,CENINFORES,['https://twitter.com/GirkinGirkin/status/1492620012598743042'],[]
UW0237,2022-02-12,51.566473,39.245741,Russia - Voronezh - Voronez,,Tanks transported by  train,CENINFORES,['https://twitter.com/GirkinGirkin/status/1492616196117741568'],[]
UW0238,2022-02-12,50.586652,36.587297,Russia - Belgorod - Belogorod,,Tanks transported by train,CENINFORES,['https://twitter.com/GirkinGirkin/status/1492598773985550336'],[]
UW0239,2022-02-12,52.181832,29.862798,"Belarus - Zashcheb'e, - None",,Tanks transported,CENINFORES,['https://twitter.com/4emberlen/status/1492561933916065795'],[]
UW0240,2022-02-11,51.419499,34.902327,Russia - Kursk - Korenevo,,Tanks transported by train,CENINFORES,['https://twitter.com/4emberlen/status/1492538894218371072'],[]
UW0241,2022-02-12,51.655437,36.139769,Russia - Kursk - Kursk,,Heavy weaopnry parked in the side of the road,CENINFORES,['https://twitter.com/GirkinGirkin/status/1492522158282747908'],[]
UW0242,2022-02-14,50.652126,36.143099,Russia - Belgorod - Seretino,,Heavy weaponry on the move,CENINFORES,['https://twitter.com/Michael1Sheldon/status/1493036503974486018'],[]
UW0243,2022-02-14,50.652335,36.142596,Russia - Belgorod - Seretino,,Heavy weaponry on the move,CENINFORES,['https://twitter.com/Michael1Sheldon/status/1493037436233994243'],[]
UW0244,2022-02-14,50.652372,36.143099,Russia - Belgorod - Seretino,,Heavy weaponry on the move,CENINFORES,['https://twitter.com/Michael1Sheldon/status/1493037767625826306'],[]
UW0245,2022-02-12,52.581186,33.764466,Russia - Bryansk - Trubchevsk,,Logistics transported in the city,CENINFORES,['https://twitter.com/GirkinGirkin/status/1492524292449443847'],[]
UW0246,2022-02-12,52.936763,36.057402,Russia - Oryol Oblast - Oryol,,Heavy weaponry transported through the city,CENINFORES,['https://twitter.com/GirkinGirkin/status/1492517699376893952'],[]
UW0247,2022-02-12,45.216787,37.602662,Russia - Krasnodar Krai - None,,Logistics transported through the highway,CENINFORES,['https://twitter.com/GirkinGirkin/status/1492509483049918468'],[]
UW0248,2022-02-14,53.207718,34.405008,Russia - Bryansk - Fokinskiy Rayon,,Train transporting russian military equipment,CENINFORES,['https://twitter.com/GirkinGirkin/status/1493081713563611136'],[]
UW0249,2022-02-13,50.494355,36.388704,Russia - Belgorod - Veselaya Lopan,,Heavy weaponry transported by train,CENINFORES,['https://www.youtube.com/watch?v=EwuaMqYf-jA&t=2s'],[]
UW0250,2022-02-11,51.051272,36.140506,Russia - Belgorod - Ivnya,,Heavy weaponry transported,CENINFORES,['https://twitter.com/MarQs__/status/1492049844634107904'],[]
UW0251,2022-02-13,51.420216,34.902004,Russia - Kursk - Korenevo,,Train transporting russian military equipment,CENINFORES,['https://twitter.com/GirkinGirkin/status/1492800611863175168'],[]
UW0252,2022-02-13,52.447302,37.46034,Russia - Oryol Oblast - Krutoe,,Military convoy,CENINFORES,['https://twitter.com/4emberlen/status/1492927310592462849'],[]
UW0253,2022-02-12,44.766398,33.86386,Ukraine - Crimea - None,,Heavy weaponry being stationed in the field,CENINFORES,['https://twitter.com/GirkinGirkin/status/1492488849024589828'],[]
UW0254,2022-02-12,44.767336,33.870736,Ukraine - Crimea - None,,Heavy weaponry stationed in the field,CENINFORES,['https://twitter.com/GirkinGirkin/status/1492486941375447045'],[]
UW0255,2022-02-12,44.60492,132.824411,Russia - Primorsky Krai - Spassk-Dalny,,Heavy weaponry transported by train,CENINFORES,['https://twitter.com/GirkinGirkin/status/1492463352123117575'],[]
UW0256,2022-02-12,52.945472,36.398942,Russia - Oryol Oblast - None,,Heavy weaponry transported by train,CENINFORES,['https://twitter.com/GirkinGirkin/status/1492287257855758337'],[]
UW0257,2022-02-11,52.979174,36.111543,Russia - Oryol Oblast - Oryol,,Heavy weaponry transported by train,CENINFORES,['https://twitter.com/GirkinGirkin/status/1492189535375081479'],[]
UW0258,2022-02-10,51.271271,37.529562,Russia - Belogorod Oblast - Gubkin,,Heavy weaponry transported through the town,CENINFORES,['https://twitter.com/GirkinGirkin/status/1492026082953891841'],[]
UW0264,2022-02-14,53.263985,34.405308,Russia - Bryansk Oblast - Bryansk,,Tanks transported by train,CENINFORES,['https://twitter.com/GirkinGirkin/status/1493246368592404486'],[]
UW0265,2022-02-14,51.419629,34.90222,Russia - Kursk Oblast - Korenevo,,Tanks transported by train,CENINFORES,['https://twitter.com/GirkinGirkin/status/1492745393423237121'],[]
UW0266,2022-02-14,50.589888,36.569779,Russia - Belogorod Oblast - Belogorod,,Trains transporting field hospital,CENINFORES,['https://twitter.com/GirkinGirkin/status/1493281590281129987'],[]
UW0267,2022-02-14,53.93592,25.764282,Belarus - None - Luje,,Helicopter movement,CENINFORES,['https://twitter.com/herooftheday10/status/1493282279434633220'],[]
UW0268,2022-02-14,50.422791,36.507979,Russia - Belogorod Oblast - None,,Heavy weaponry being set up,CENINFORES,['https://twitter.com/4emberlen/status/1493246283875864576'],[]
UW0269,2022-02-14,50.652126,36.143099,Russia - Belogorod Oblast - Seretino,,Tanks transported,CENINFORES,['https://twitter.com/Michael1Sheldon/status/1493036503974486018'],[]
UW0270,2022-02-14,50.673308,36.237427,Russia - Belogorod Oblast - Tomarovka,,Tanks transported,CENINFORES,['https://twitter.com/Michael1Sheldon/status/1493037767625826306'],[]
UW0271,2022-02-13,50.430378,36.343892,Russia - Belogorod Oblast - Oktyabr'skii,,Heavy weaponry transported through,CENINFORES,['https://twitter.com/Michael1Sheldon/status/1492886012082728961'],[]
UW0272,2022-02-12,51.558104,39.241489,Russia - Voronezh Oblast - Voronezh,,Tanks transported through the town,CENINFORES,['https://twitter.com/Michael1Sheldon/status/1492368406036860930'],[]
UW0273,2022-02-12,44.766014,33.866656,Ukraine - Crimea - None,,Heavy weaponry being set up in the fields,CENINFORES,['https://twitter.com/Michael1Sheldon/status/1492329248052420610'],[]
UW0274,2022-02-11,51.731907,36.241563,Russia - Kursk Oblast - Kursk,,Heavy weaponry being transported through town,CENINFORES,['https://twitter.com/Michael1Sheldon/status/1492229233485225991'],[]
UW0275,2022-02-11,51.79662,29.50597,Belarus - None - Naroulia,,Heavy weaponry transported by train through the town,CENINFORES,['https://twitter.com/GirkinGirkin/status/1492013018296819720'],[]
UW0276,2022-02-13,51.785927,36.410409,Russia - Kursk Oblast - None,,Heavy weaponry transported in the highway,CENINFORES,['https://twitter.com/GirkinGirkin/status/1492765937568821249'],[]
UW0277,2022-02-12,51.789698,36.43405,Russia - Kursk Oblast - None,,Heavy weaponry stationed in the field,CENINFORES,['https://twitter.com/4emberlen/status/1492540764961792012'],[]
UW0280,2022-02-13,50.673422,36.237189,Russia - Belgorod - Tomarovka,,Tanks on the move,CENINFORES,['https://twitter.com/GirkinGirkin/status/1493296620053618690'],[]
UW0281,2022-02-13,50.673329,36.237008,Russia - Belgorod - Tomarovka,,Military equipment on the move,CENINFORES,['https://www.youtube.com/watch?v=G1ro0qi-Wnw&feature=youtu.be'],[]
UW0282,2022-02-13,50.67338,36.237134,Russia - Belgorod - Tomarovka,,Military equipment on the move,CENINFORES,['https://twitter.com/Idzanagi4/status/1493060690197766148'],[]
UW0284,2022-02-15,50.934352,36.026949,Russia - Belgorod - Vengerovka,,Military equipment on the move,CENINFORES,['https://twitter.com/breakinglv/status/1493680048234287119'],[]
UW0285,2022-02-16,51.662172,35.239093,Russia - Kursk Oblast - None,,Military equipment on the move,CENINFORES,['https://twitter.com/Michael1Sheldon/status/1493801932363911171'],[]
UW0286,2022-02-15,50.526649,36.255523,Russia - Belgorod Oblast - None,,Military equipment on the move,CENINFORES,['https://twitter.com/Michael1Sheldon/status/1493720746392272899'],[]
UW0287,2022-02-14,50.504765,36.382523,Russia - Belgorod Oblast - Veslya Lopan,,Military equipment stationed in the field,CENINFORES,['https://twitter.com/4emberlen/status/1493245936830660610'],[]
UW0288,2022-02-12,51.64801,35.9558,Russia - Kursk Oblast - None,,Military equipment on the move,CENINFORES,['https://twitter.com/4emberlen/status/1492837289055207427'],[]
UW0289,2022-02-14,52.144771,30.607,Belarus - None - None,,Military equipment on the move,CENINFORES,['https://twitter.com/4emberlen/status/1493540727174963202'],[]
UW0290,2022-02-14,50.497047,36.389935,Russia - Belgorod Oblast - Veslya Lopan,,"S-300V missile tubes, launcher and transport vehicles unloading from train, also carrying multiple white-painted BMP-2s",CENINFORES,['https://twitter.com/Idzanagi4/status/1493625284318449671'],[]
UW0291,2022-02-15,50.587352,36.562645,Russia - Belgorod Oblast - Belgorod,,Train transporting russian military equipment,CENINFORES,['https://twitter.com/GirkinGirkin/status/1493658749529202689'],[]
UW0292,2022-02-15,50.795213,35.715781,Russia - Belgorod Oblast - Krasnaya Yaruga,,heavy miilitary equipment being transported,CENINFORES,['https://twitter.com/GirkinGirkin/status/1493531282134945796'],[]
UW0293,2022-02-16,50.63062,36.121997,Russia - Belgorod Oblast - Porubezhnoye,,Row of tanks,CENINFORES,['https://www.tiktok.com/@kocenko_marina/video/7064987689652718850?is_from_webapp=1&sender_device=pc&web_id6921390078750344710'],[]
UW0294,2022-02-15,50.496261,36.389658,Russia - Belgorod Oblast - Veslya Lopan,,Tanks stationed in field,CENINFORES,['https://twitter.com/GirkinGirkin/status/1493531939126534146'],[]
UW0295,2022-02-15,52.757044,32.230254,Russia - Bryansk - Klintsy,,Convoy on the move,CENINFORES,['https://twitter.com/JC_Monitoring/status/1493708688481304586'],[]
UW0296,2022-02-16,52.5814,32.763151,Russia - Bryansk - Starodub,,Convoy on the move,CENINFORES,['https://twitter.com/JC_Monitoring/status/1493725297879003139'],[]
UW0298,2022-02-16,50.668416,36.224079,Russia - Belgorod - Tomarovka,,Fuel trucks on the move,CENINFORES,['https://twitter.com/JC_Monitoring/status/1493729688920887307'],[]
UW0300,2022-02-16,50.673064,36.237465,Russia - Belgorod - Tomarovka,,Tanks lined up,CENINFORES,['https://twitter.com/GirkinGirkin/status/1493794951200706560'],[]
UW0301,2022-02-16,52.36901,30.3431,Belarus - Gomel - Rechytsa,,Heavy weaponry being transported,CENINFORES,['https://twitter.com/JC_Monitoring/status/1493738346564268032'],[]
UW0303,2022-02-14,50.225408,38.107128,Russia - Belgorod - Valuyki,,Helicopters stationed at airfield,CENINFORES,['https://twitter.com/4emberlen/status/1493370314293719046'],[]
UW0304,2022-02-14,50.437327,36.379815,Russia - Belgorod - Oktyabrsky,,Radar system in field,CENINFORES,['https://twitter.com/4emberlen/status/1493246283875864576'],[]
UW0306,2022-02-16,50.570198,36.52756,Russia - Belgorod Oblast - Belgorod,,Train transporting russian military equipment,CENINFORES,['https://twitter.com/GirkinGirkin/status/1493916265408339973'],[]
UW0308,2022-02-15,50.673287,36.236882,Russia - Belgorod Oblast - Tomarovka,,T-80BV tanks on the move,CENINFORES,['https://www.tiktok.com/@moto_bat31/video/7064951242409250049'],[]
UW0309,2022-02-16,50.672901,36.237582,Russia - Belgorod Oblast - Tomarovka,,T-90 tanks on the move,CENINFORES,['https://www.tiktok.com/@moto_bat31/video/7065302927874788609'],[]
UW0310,2022-02-16,50.673383,36.23713,Russia - Belgorod Oblast - Tomarovka,,T-80BV tanks on the move,CENINFORES,['https://www.tiktok.com/@moto_bat31/video/7065304080389852418'],[]
UW0311,2022-02-16,50.673349,36.237253,Russia - Belgorod Oblast - Tomarovka,,T-90 tanks on the move,CENINFORES,['https://www.tiktok.com/@moto_bat31/video/7065306324585712898'],[]
UW0312,2022-02-16,50.672421,36.237886,Russia - Belgorod Oblast - Tomarovka,,T-90 tanks on the move,CENINFORES,['https://www.tiktok.com/@moto_bat31/video/7065308855407774978'],[]
UW0313,2022-02-16,50.673424,36.237194,Russia - Belgorod Oblast - Tomarovka,,T-90 tanks on the move,CENINFORES,['https://www.tiktok.com/@moto_bat31/video/7065309604246228225'],[]
UW0314,2022-02-16,50.672754,36.237704,Russia - Belgorod Oblast - Tomarovka,,T-90 tanks on the move,CENINFORES,['https://www.tiktok.com/@moto_bat31/video/7065314204504345857'],[]
UW0315,2022-02-16,50.672982,36.237538,Russia - Belgorod Oblast - Tomarovka,,T-90 tanks on the move,CENINFORES,['https://www.tiktok.com/@moto_bat31/video/7065315245425757441'],[]
UW0316,2022-02-16,50.673268,36.237313,Russia - Belgorod Oblast - Tomarovka,,T-90 tanks on the move,CENINFORES,['https://www.tiktok.com/@moto_bat31/video/7065358572779031810'],[]
UW0317,2022-02-16,51.655419,36.13857,Russia - Kursk Oblast - Kursk,,Iskander and communications vehicle,CENINFORES,['https://twitter.com/GirkinGirkin/status/1493981749533196289'],[]
UW0318,2022-02-16,51.746395,36.235049,Russia - Kursk Oblast - Kursk,,Logistics on the move,CENINFORES,['https://twitter.com/GirkinGirkin/status/1494003211992186892'],[]
UW0319,2022-02-16,50.492895,36.388277,Russia - Kursk Oblast - Kursk,,Tanks on the move,CENINFORES,['https://twitter.com/GirkinGirkin/status/1494016275588296706'],[]
UW0320,2022-02-15,52.32415,36.30911,Russia - Kursk Oblast - Kursk,,Tanks on the move,CENINFORES,['https://twitter.com/Michael1Sheldon/status/1493972685931622402'],[]
UW0322,2022-02-16,51.746466,36.234542,Russia - Kursk Oblast - Kursk,,Military equipment on the move,CENINFORES,['https://twitter.com/GirkinGirkin/status/1494003211992186892'],[]
UW0324,2022-02-16,57.585712,40.757652,Russia - Kostroma Oblast - Kosmynino,,Train with heavy military equipment,CENINFORES,['https://twitter.com/JC_Monitoring/status/1494073105249181702'],[]
UW0325,2022-02-15,51.234155,36.698004,Russia - Kursk Oblast - Pristen,,heavy military equipment at train station,CENINFORES,['https://twitter.com/4emberlen/status/1494098700599271429'],[]
UW0326,2022-02-17,48.673881,39.451362,Ukraine - Luhansk Oblast - Stanytsia Luhanska,,Shelling of kindergarten,CENINFORES,['https://twitter.com/Liveuamap/status/1494226702851059716'],[]
UW0327,2022-02-17,50.680601,36.135381,Russia - Belgorod - Moshchenoe,,Heavy military equipment in field,CENINFORES,['https://twitter.com/Michael1Sheldon/status/1494175756787851265'],[]
UW0328,2022-02-16,48.930566,40.418238,Russia - Rostov - Millerovo,,Military equipment on the move,CENINFORES,['https://twitter.com/4emberlen/status/1494044493246607364'],[]
UW0329,2022-02-15,52.080246,36.374321,Russia - Kursk Oblast - Zolotukhino,,Train with heavy military equipment,CENINFORES,['https://twitter.com/Michael1Sheldon/status/1493985911834660867'],[]
UW0330,2022-02-11,51.420153,34.901737,Russia - Kursk - Korenevo,,Train with heavy military equipment,CENINFORES,['https://twitter.com/GirkinGirkin/status/1492201534507175939'],[]
UW0331,2022-02-17,47.941013,37.504014,Ukraine - Donetsk Oblast - Mar'inka,,Shelling audible,CENINFORES,['https://twitter.com/markito0171/status/1494239711996559362'],[]
UW0332,2022-02-17,51.747214,36.233418,Russia - Kursk - Kursk,,Military equipment on the move,CENINFORES,['https://twitter.com/KyleJGlen/status/1494258304788443136'],[]
UW0333,2022-02-17,52.257613,27.855881,Belarus - Gomel - Zhytkavichy,,Military equipment on the move,CENINFORES,['https://twitter.com/mikaellindstro2/status/1494277932444958726'],[]
UW0334,2022-02-17,52.257116,26.812163,Belarus - Brest - Luninets,,Large amount of heavy military equipment,CENINFORES,['https://twitter.com/4emberlen/status/1494364071189225479'],[]
UW0335,2022-02-17,50.235219,37.871661,Russia - Belgorod - Kazinka,,a single Howitzer spotted,CENINFORES,['https://twitter.com/4emberlen/status/1494362768241315840'],[]
UW0336,2022-02-18,50.673253,36.237261,Russia - Belgorod - Tomarovka,,Movement of tanks,CENINFORES,['https://twitter.com/GirkinGirkin/status/1494548071006588942'],[]
UW0337,2022-02-18,54.227523,37.628679,Russia - None - Tula,,Movement of tanks,CENINFORES,['https://twitter.com/GirkinGirkin/status/1494545200999550978'],[]
UW0338,2022-02-18,51.575,34.675278,Russia - Kursk - Rylsk,,Movement of tanks,CENINFORES,['https://twitter.com/GirkinGirkin/status/1494527340772220962'],[]
UW0340,2022-02-18,52.523611,31.948333,Russia - Bryansk - Novozybkov,,Tanks stationed,CENINFORES,['https://twitter.com/GirkinGirkin/status/1494524170406928386'],[]
UW0341,2022-02-18,55.474972,28.750167,Belarus - None - Polatsk,,Movement of logistics,CENINFORES,['https://twitter.com/GirkinGirkin/status/1494523071620911111'],[]
UW0342,2022-02-18,51.551389,38.971944,Russia - Voronezh Oblast - None,,Movement of logistics,CENINFORES,['https://twitter.com/GirkinGirkin/status/1494521174050627601'],[]
UW0343,2022-02-18,50.620278,36.514167,Russia - Belgorod - Belgorod,,Movement of logistics,CENINFORES,['https://twitter.com/GirkinGirkin/status/1494513452592812039'],[]
UW0345,2022-02-17,50.671311,36.238304,Russia - Belgorod - Tomarovka,,Logistic on vehicle,CENINFORES,['https://twitter.com/GirkinGirkin/status/1494394926821425159'],[]
UW0346,2022-02-17,51.747946,36.231305,Russia - Kursk - Kursk,,Heavy weaponry and logistics on trains,CENINFORES,['https://twitter.com/GirkinGirkin/status/1494390380812554240'],[]
UW0347,2022-02-17,50.658469,36.609397,Russia - Belgorod - None,,Movement of Heavy Weaponry,CENINFORES,['https://twitter.com/GirkinGirkin/status/1494294326251249665'],[]
UW0350,2022-02-17,50.922438,128.459969,Russia - Amur Oblast - Belogorsk,,Movement of Tanks,CENINFORES,['https://twitter.com/GirkinGirkin/status/1494253577107390469'],[]
UW0351,2022-02-17,52.357418,35.38804,Russia - Kursk Oblast - Kursk,,Tanks of trains,CENINFORES,['https://twitter.com/GirkinGirkin/status/1494234727938723843'],[]
UW0352,2022-02-17,50.6307,36.1221,Russia - Belgorod - None,,Movement of tanks,CENINFORES,['https://twitter.com/GirkinGirkin/status/1494116931854553093'],[]
UW0353,2022-02-16,52.791694,29.407625,Belarus - Kozlovka - None,,Movement of tanks,CENINFORES,['https://twitter.com/GirkinGirkin/status/1494023598272614405'],[]
UW0354,2022-02-18,51.046389,38.981944,Russia - Voronezh Oblast - None,,Movement of logistics,CENINFORES,['https://twitter.com/GirkinGirkin/status/1494601682663219201'],[]
UW0355,2022-02-17,50.672137,36.237488,Russia - Belgorod - Tomarovka,,Tanks unloaded off train,CENINFORES,['https://www.tiktok.com/@moto_bat31/video/7065692988516617474?is_copy_url=1&is_from_webapp=v1'],[]
UW0356,2022-02-17,52.12562,29.33316,Belarus - None - Kalinkavichy,,Heavy weaponry stationed,CENINFORES,['https://twitter.com/MotolkoHelp/status/1494333849362321409'],[]
UW0357,2022-02-17,50.858338,36.147395,Russia - Belgorod - None,,Helicopter movement,CENINFORES,['https://twitter.com/GirkinGirkin/status/1494166438810112002'],[]
UW0358,2022-02-17,50.223421,38.110431,Russia - Belgorod - None,,Helicopter stationed,CENINFORES,['https://twitter.com/GirkinGirkin/status/1494396199411068932'],[]
UW0359,2022-02-17,50.7009,36.2902,Russia - Belgorod - None,,Helicopter stationed,CENINFORES,['https://twitter.com/GirkinGirkin/status/1493256015445377033'],[]
UW0360,2022-02-18,50.500994,36.370201,Russia - Belgorod - Veselaya Lopan',,Tank movement,CENINFORES,['https://twitter.com/GirkinGirkin/status/1494532307193147392'],[]
UW0361,2022-02-16,50.665195,36.140913,Russia - Belgorod - None,,Tanks on the move,CENINFORES,['https://twitter.com/GirkinGirkin/status/1493969098690248707'],[]
UW0362,2022-02-18,51.564055,39.246142,Russia - Voronezh - Voronezh,,Tanks on the move,CENINFORES,['https://twitter.com/GirkinGirkin/status/1494310992494399492'],[]
UW0363,2022-02-18,45.747391,34.411273,Ukraine - Crimea - None,,Military movement,CENINFORES,['https://twitter.com/GirkinGirkin/status/1494597653455380494'],[]
UW0364,2022-02-18,51.51186,29.424702,Belarus - Gomel - Kirov,,Military convoy headed to border,CENINFORES,['https://twitter.com/MotolkoHelp/status/1494667171972141061?s=20&t=INxS006VnD8YOq83CznkMQ'],[]
UW0365,2022-02-18,48.010155,37.800712,Ukraine - Donetsk Oblast - Donesk,,Damage after explosion,CENINFORES,['https://twitter.com/burtstengl/status/1494714871254036480'],[]
UW0366,2022-02-18,51.78385,29.484522,Belarus - Gomel - Naroulia,,Movement of logistics,CENINFORES,['https://twitter.com/GirkinGirkin/status/1494733116417716225'],[]
UW0367,2022-02-18,53.121944,34.979444,Russia - Bryansk - Karachev,,Iskander system on the move,CENINFORES,['https://twitter.com/GirkinGirkin/status/1494739311727714306'],[]
UW0368,2022-02-18,53.012621,29.208257,Belarus - Mogilev - None,,Military convoy headed south,CENINFORES,['https://twitter.com/MotolkoHelp/status/1494668118320373762'],[]
UW0369,2022-02-18,45.210692,33.366481,Ukraine - Crimea - Yevpatoria,,Military convoy headed west,CENINFORES,['https://twitter.com/GirkinGirkin/status/1494733367597805569'],[]
UW0370,2022-02-18,51.654832,36.134569,Russia - Kursk - Kursk,,Military vehicles in Kursk by the train station,CENINFORES,['https://twitter.com/herooftheday10/status/1494720540258488329'],[]
UW0371,2022-02-18,50.733049,37.816783,Russia - None - None,,BMPS sitting on a road,CENINFORES,['https://twitter.com/GirkinGirkin/status/1494675977322041351'],[]
UW0372,2022-02-18,51.008144,36.074424,Russia - Belgorod - Kirovskii,,Arty heading west off road,CENINFORES,['https://twitter.com/GirkinGirkin/status/1494747979361792008'],[]
UW0373,2022-02-18,50.763662,35.955101,Russia - Belgorod - Stadnitsa,,Tanks on side of the road,CENINFORES,['https://twitter.com/Michael1Sheldon/status/1494799856346488840'],[]
UW0374,2022-02-18,51.564512,39.245922,Russia - Voronezh - Voronezh,,BMPs on Rail transportation,CENINFORES,['https://twitter.com/JC_Monitoring/status/1494808918735867914'],[]
UW0375,2022-02-18,52.590993,32.843183,Russia - Bryansk - Starodub,,Tank and tank transporter making a u turn,CENINFORES,['https://twitter.com/Michael1Sheldon/status/1494813747612954625'],[]
UW0376,2022-02-18,50.67269,36.237817,Russia - Belgorod - Tomarovka,,Tanks on the side of the road,CENINFORES,['https://twitter.com/JC_Monitoring/status/1494814832536793090'],[]
UW0377,2022-02-18,50.512787,37.536758,Russia - Belgorod - Pervomaiskiii,,BMPs on side of road,CENINFORES,['https://twitter.com/Michael1Sheldon/status/1494790890224762882'],[]
UW0378,2022-02-18,51.009426,36.075792,Russia - Belgorod - Kirovskii,,T-72s on side of road being dropped of by transportation,CENINFORES,['https://twitter.com/GirkinGirkin/status/1494748190930788359'],[]
UW0379,2022-02-18,51.009426,36.075792,Russia - Belgorod - Kirovskii,,T-72s on side of road being dropped of by transportation,CENINFORES,['https://twitter.com/GirkinGirkin/status/1494748327287660548'],[]
UW0380,2022-02-18,51.569587,36.07548,Russia - Belgorod - Kursk,,Arty being transported,CENINFORES,['https://twitter.com/GirkinGirkin/status/1494731971917922311'],[]
UW0381,2022-02-18,51.011282,36.077033,Russia - Belgorod - Kirovskii,,Military vehicles on road,CENINFORES,['https://twitter.com/GirkinGirkin/status/1494734878893645828'],[]
UW0382,2022-02-18,53.219955,34.385277,Russia - Bryansk - Bryansk,,Military BBV and coverd IFV,CENINFORES,['https://twitter.com/Idzanagi4/status/1494620881687040000'],[]
UW0383,2022-02-18,52.523839,31.948376,Russia - Bryansk - Novozybkov,,IFV on rail transport,CENINFORES,['https://twitter.com/Idzanagi4/status/1494018428679639042'],[]
UW0384,2022-02-18,50.784039,36.502464,Russia - Belgorod - Stroitel,,3x BMPs 2x BBV,CENINFORES,['https://twitter.com/GirkinGirkin/status/1494821968067145734'],[]
UW0385,2022-02-19,51.56613,39.246578,Russia - Voronezh - Voronezh,,"Rocket, ARTY and troop transporters",CENINFORES,['https://twitter.com/GirkinGirkin/status/1494885377890471941'],[]
UW0386,2022-02-19,52.411313,30.82866,Belarus - Gomel - None,,Military convoy heading south,CENINFORES,['https://twitter.com/GirkinGirkin/status/1494830278136717313'],[]
UW0388,2022-02-19,50.496084,36.389785,Russia - Belgorod - Veselaya Lopan',,Large numbers of tanks on side of road,CENINFORES,['https://twitter.com/GirkinGirkin/status/1495019081631772673'],[]
UW0389,2022-02-19,50.465925,37.195805,Russia - Belgorod - Belyanka,,Arty being pulled by BBV,CENINFORES,['https://twitter.com/Michael1Sheldon/status/1495058835731582979'],[]
UW0390,2022-02-19,50.411735,36.910363,Russia - Belgorod - Shebekino,,AR,CENINFORES,['https://twitter.com/Michael1Sheldon/status/1495061641578401795'],[]
UW0391,2022-02-19,50.411735,36.910363,Russia - Belgorod - Shebekino,,military (equipment) on the move,CENINFORES,['https://twitter.com/Michael1Sheldon/status/1495062942903156744'],[]
UW0392,2022-02-19,52.826555,35.87145,Russia - Oryol - Saltyki,,IFV lined up in a row,CENINFORES,['https://twitter.com/JC_Monitoring/status/1495059793966514183'],[]
UW0393,2022-02-19,55.99479,35.9222,Russia - Moscow Oblast - Volokolamsk,,Tanks being moved by train,CENINFORES,['https://twitter.com/GirkinGirkin/status/1494825550342459392'],[]
UW0394,2022-02-19,50.497778,36.387193,Russia - Belgorod Oblast - Veselaya Lopan',,Movement of tanks,CENINFORES,['https://twitter.com/GirkinGirkin/status/1495018245631397892'],[]
UW0395,2022-02-19,55.99479,35.9222,Russia - Moscow Oblast - Volokolamsk,,Tanks being transported by train,CENINFORES,['https://twitter.com/GirkinGirkin/status/1495022443857162250'],[]
UW0396,2022-02-19,51.788277,36.417822,Russia - Kursk - None,,Setting up of military base,CENINFORES,['https://twitter.com/GirkinGirkin/status/1494984111471140871'],[]
UW0397,2022-02-19,50.45281,37.143927,Russia - Belgorod Oblast - Ternovoe,,Movement of tanks,CENINFORES,['https://twitter.com/Idzanagi4/status/1495061583571079174'],[]
UW0398,2022-02-19,44.752162,37.749437,Russia - Krasnodar Krai - Novorossiysk,,Tanks moving through town,CENINFORES,['https://twitter.com/Idzanagi4/status/1495053679266832390'],[]
UW0399,2022-02-19,50.795403,35.716462,Russia - Belgorod Oblast - None,,Movement of tanks,CENINFORES,['https://twitter.com/KyleJGlen/status/1494984191586578434'],[]
UW0400,2022-02-19,51.716462,36.265661,Russia - Kursk - None,,Movement of military logistics,CENINFORES,['https://twitter.com/GirkinGirkin/status/1494867617634471940'],[]
UW0401,2022-02-19,52.29024,30.358015,Belarus - None - None,,Military convoy moving,CENINFORES,['https://twitter.com/Idzanagi4/status/1495049985150312449'],[]
UW0402,2022-02-19,53.062779,32.848194,Russia - Bryansk - Mglin,,Heavy weaponry moving through the town,CENINFORES,['https://twitter.com/Idzanagi4/status/1495019720361320453'],[]
UW0403,2022-02-19,53.286896,28.827678,Belarus - None - None,,Heavy weaponry being transported,CENINFORES,['https://twitter.com/MotolkoHelp/status/1495008242430316547'],[]
UW0404,2022-02-19,45.25521,37.463664,Russia - Krasnodar Krai - Temryuk,,Logistics on the move,CENINFORES,['https://twitter.com/Idzanagi4/status/1495015956078374913'],[]
UW0405,2022-02-19,50.861289,36.450786,Russia - Belgorod - Yakovlevo,,Heavy weaponry stationed at the side of the road,CENINFORES,['https://twitter.com/GirkinGirkin/status/1495032915264163846'],[]
UW0406,2022-02-19,53.222743,34.377321,Russia - Bryansk - Bryansk,,Movement of heavy weaponry,CENINFORES,['https://twitter.com/sasha_sotnik/status/1495024214939774980'],[]
UW0407,2022-02-19,50.855827,36.455077,Russia - Belgorod - Yakovlevo,,Military personnel,CENINFORES,['https://t.me/new_militarycolumnist/72285'],[]
UW0408,2022-02-20,44.928165,37.334667,Russia - Krasnodar Krai - Chemburka,,Movement of heavy weaponry,CENINFORES,['https://twitter.com/JC_Monitoring/status/1495152980093513731'],[]
UW0409,2022-02-19,50.963884,36.581095,Russia - Belgorod - None,,Movement of logistical equipment,CENINFORES,['https://twitter.com/JC_Monitoring/status/1495143188599824384'],[]
UW0410,2022-02-19,50.528436,37.358069,Russia - Belgorod - Maksimovka,,Equipment moving west,CENINFORES,['https://twitter.com/GirkinGirkin/status/1495122053116145667'],[]
UW0411,2022-02-19,52.366589,30.34939,Belarus - None - Rechitsa,,Tanks being transported,CENINFORES,['https://twitter.com/JC_Monitoring/status/1495169062866927620'],[]
UW0412,2022-02-19,50.550785,37.450317,Russia - Belgorod - Bershakova,,Large convoy of military equipment,CENINFORES,['https://twitter.com/YWNReporter/status/1495168140061384708'],[]
UW0414,2022-02-20,51.161909,36.101448,Russia - Kursk - Pavloka,,Tanks moving through town,CENINFORES,['https://twitter.com/Michael1Sheldon/status/1495266521777594374'],[]
UW0415,2022-02-19,50.496607,36.390005,Russia - Belgorod - Veselaya Lopan,,Large amount of military equipment,CENINFORES,['https://twitter.com/4emberlen/status/1495231557829038083'],[]
UW0416,2022-02-19,51.650375,36.384521,Russia - Kursk - Bol'shoe Shumakovo,,Tanks with 'z' markings,CENINFORES,['https://twitter.com/4emberlen/status/1495316374553612289'],[]
UW0417,2022-02-19,53.12275,27.563166,Belarus - None - Kukhty,,Convoy moving south,CENINFORES,['https://twitter.com/MotolkoHelp/status/1494998947387084810'],[]
UW0418,2022-02-20,50.650735,36.534391,Russia - Belgorod - Belgorod,,Large amount of military equipment,CENINFORES,['https://twitter.com/4emberlen/status/1495357694294777864'],[]
UW0419,2022-02-20,52.420708,31.7491,Russia - Bryansk - Zlynka,,Tanks on the move,CENINFORES,['https://twitter.com/4emberlen/status/1495365726869327877'],[]
UW0420,2022-02-20,50.320719,37.921465,Russia - Belgorod - Printsevka,,Convoy heading north,CENINFORES,['https://twitter.com/4emberlen/status/1495370167030882304'],[]
UW0421,2022-02-20,51.424736,36.090197,Russia - Kursk - Medvenka,,Tanks moving west,CENINFORES,['https://twitter.com/GirkinGirkin/status/1495389712634335234'],[]
UW0422,2022-02-20,52.597417,38.4395,Russia - Lipestk - Kliuch Zhizni,,Tanks being transported by train,CENINFORES,['https://twitter.com/GirkinGirkin/status/1495462683218427914'],[]
UW0424,2022-02-19,45.11711,37.441791,Russia - Krasnodar Krai - None,,Movement of bridge parts and boats,CENINFORES,['https://twitter.com/GirkinGirkin/status/1495130617851392004'],[]
UW0425,2022-02-20,50.242996,38.037612,Russia - Belgorod Oblast - None,,Tanks stationed in the side of the road,CENINFORES,['https://twitter.com/GirkinGirkin/status/1495398896973107205'],[]
UW0426,2022-02-20,52.421984,31.746372,Russia - Bryansk - Zlynka,,Tanks moving,CENINFORES,['https://twitter.com/GirkinGirkin/status/1495392608859963395'],[]
UW0427,2022-02-20,45.212611,33.357185,Ukraine - Crimea - Yevpatoriya,,Tanks being transported,CENINFORES,['https://twitter.com/GirkinGirkin/status/1495393293890371584'],[]
UW0428,2022-02-20,45.009139,38.969743,Russia - Krasnodar - Krasnodar,,Heavy weaponry on the move,CENINFORES,['https://twitter.com/GirkinGirkin/status/1495463432790941701'],[]
UW0429,2022-02-20,51.789721,36.433995,Russia - Kursk - Malinovyi,,Large military convoy with 'z',CENINFORES,['https://twitter.com/GirkinGirkin/status/1495482636533391370'],[]
UW0430,2022-02-20,51.420757,36.734055,Russia - Kursk - Nikol'skoe,,Tanks on the move,CENINFORES,['https://twitter.com/GirkinGirkin/status/1495479787007234048'],[]
UW0431,2022-02-20,52.015498,29.193043,Belarus - None - Kozenki,,Movement of heavy weaponry,CENINFORES,['https://twitter.com/MotolkoHelp/status/1495369733461397514'],[]
UW0432,2022-02-20,52.119869,35.057755,Russia - Kursk Oblast - Dmitriyev,,Tanks stationed in the side of the road,CENINFORES,['https://twitter.com/GirkinGirkin/status/1495472823824957440'],[]
UW0433,2022-02-21,57.64142,34.411813,Russia - Tver Oblast - None,,Tanks stationed in the side of the road,CENINFORES,['https://twitter.com/Michael1Sheldon/status/1495548898944897028'],[]
UW0434,2022-02-20,57.595269,34.564613,Russia - Tver Oblast - None,,Tanks stationed in the side of the road,CENINFORES,['https://twitter.com/Michael1Sheldon/status/1495548048679882759'],[]
UW0435,2022-02-20,50.314267,37.931973,Russia - Belgorod - Printsevka,,Heavy equipment moving north,CENINFORES,['https://twitter.com/YWNReporter/status/1495470916679184388'],[]
UW0436,2022-02-20,51.138909,36.043678,Russia - Belgorod - Cherenovo,,Equipment on the move,CENINFORES,['https://twitter.com/4emberlen/status/1495357148984922118'],[]
UW0437,2022-02-21,51.095655,36.072969,Russia - Belgorod - None,,Borisoglebsk-2 Electronic Warfare System and other armoured fighting vehicles on the move,CENINFORES,['https://twitter.com/GirkinGirkin/status/1495622087339397120'],[]
UW0438,2022-02-20,50.795513,35.716413,Russia - Belgorod - None,,Heavy weaponry on the move,CENINFORES,['https://twitter.com/GirkinGirkin/status/1495474393560059907'],[]
UW0439,2022-02-20,52.115536,34.471345,Russia - Bryansk - None,,Logistics on the move,CENINFORES,['https://twitter.com/GirkinGirkin/status/1495413406622490629'],[]
UW0440,2022-02-20,51.279111,37.573972,Russia - Belgorod - Gubkin,,Heavy weaponry on the move,CENINFORES,['https://twitter.com/GirkinGirkin/status/1495296046712430594'],[]
UW0441,2022-02-19,50.199549,38.121542,Russia - Belgorod - Valyuki,,Heavy weaponry on the move,CENINFORES,['https://twitter.com/GirkinGirkin/status/1495118536548700162'],[]
UW0442,2022-02-19,50.419417,37.027611,Russia - Belgorod - Voznesenovka,,Heavy weaponry on the move,CENINFORES,['https://twitter.com/GirkinGirkin/status/1495112678532128770'],[]
UW0443,2022-02-19,50.51275,37.536556,Russia - Belgorod - None,,Stationed tanks,CENINFORES,['https://twitter.com/GirkinGirkin/status/1495063279000948738'],[]
UW0444,2022-02-19,50.63062,36.121997,Russia - Belgorod - None,,Heavy weaponry on the move,CENINFORES,['https://twitter.com/GirkinGirkin/status/1495020849748971520'],[]
UW0445,2022-02-19,52.826028,35.871287,Russia - Oryol Oblast - Saltyki,,Heavy weaponry on the move,CENINFORES,['https://twitter.com/GirkinGirkin/status/1494985842535849984'],[]
UW0446,2022-02-20,50.504112,36.270381,Russia - Belgorod - Chaika,,Tanks moving north west,CENINFORES,['https://twitter.com/GirkinGirkin/status/1495471310159421443'],[]
UW0447,2022-02-21,51.843593,29.220673,Belarus - Gomel - Sanyuki,,Rosgvardia convoy heading south,CENINFORES,['https://twitter.com/MotolkoHelp/status/1495731393854427137'],[]
UW0448,2022-02-20,51.788271,36.419269,Russia - Kursk Oblast - Malinovyi,,Large camp with heavy military equipment,CENINFORES,['https://twitter.com/no_itsmyturn/status/1495724090019229699'],[]
UW0449,2022-02-21,47.404155,38.918944,Russia - Rostov - Pokrovskoe,,Tanks being loaded,CENINFORES,['https://twitter.com/4emberlen/status/1495235434875609088'],[]
UW0450,2022-02-21,52.548883,32.961264,Russia - Bryansk - Nizy,,Tanks moving south,CENINFORES,['https://twitter.com/YWNReporter/status/1495764242846392332'],[]
UW0451,2022-02-21,50.496496,36.389983,Russia - Belgorod - Veselaya Lopan,,Missiles visable and painted heavy equipment,CENINFORES,['https://twitter.com/4emberlen/status/1495715028900720649?s=21'],[]
UW0452,2022-02-22,50.678969,36.245588,Russia - Belgorod - Tomarovka,,Heavy weaponry on the move,CENINFORES,['https://twitter.com/GirkinGirkin/status/1495860047691329537'],[]
UW0453,2022-02-21,50.574638,35.943149,Russia - Belgorod - None,,Movement of tanks,CENINFORES,['https://twitter.com/GirkinGirkin/status/1495845829147561989'],[]
UW0454,2022-02-21,45.433833,40.585464,Russia - Krasnodar Krai - Kropotkin,,Tanks transported by trains,CENINFORES,['https://twitter.com/GirkinGirkin/status/1495816924801941517'],[]
UW0454,2022-02-21,45.433833,40.585464,Russia - Krasnodar Krai - Kropotkin,,Tanks transported by trains,CENINFORES,['https://twitter.com/GirkinGirkin/status/1495816924801941517'],[]
UW0455,2022-02-21,44.98585,39.115193,Russia - Krasnodar Krai - None,,Military convoy moving on the highway,CENINFORES,['https://twitter.com/4emberlen/status/1495731452230656008'],[]
UW0456,2022-02-21,52.34975,30.40468,Belarus - Gomel - Rechytsa,,Train moving west,CENINFORES,['https://twitter.com/MotolkoHelp/status/1495808675235364868'],[]
UW0457,2022-02-21,50.45849,35.654072,Russia - Belgorod - Gora-Podol,,Tanks moving towards the border,CENINFORES,['https://twitter.com/YWNReporter/status/1495858102964559873'],[]
UW0458,2022-02-21,45.635205,38.936367,Russia - Krasnodar Krai - Timashevsk,,Convoy on the move,CENINFORES,['https://twitter.com/JC_Monitoring/status/1495852505921732616'],[]
UW0459,2022-02-21,51.999719,29.257309,Belarus - Gomel - Raevskie,,Convoy on the south,CENINFORES,['https://twitter.com/MotolkoHelp/status/1495776848260870149'],[]
UW0460,2022-02-22,50.42703,37.069789,Russia - Belgorod Oblast - Malomikhailovka,,Convoy on the move,CENINFORES,['https://twitter.com/YWNReporter/status/1495944475264307204'],[]
UW0461a,2022-02-21,48.017533,37.982981,Ukraine - Donetsk Oblast - Makiivka,,Convoy moving north west,CENINFORES,['https://twitter.com/GirkinGirkin/status/1495829232068538371'],[]
UW0461b,2022-02-22,47.516949,38.89946,Russia - Rostov - Denisovka,,Convoy moving towards the border,CENINFORES,['https://twitter.com/Michael1Sheldon/status/1496086615776804868'],[]
UW0462,2022-02-21,55.494609,28.744695,Belarus - None - Polatsk,,Movement of heavy weaponry,CENINFORES,['https://twitter.com/MotolkoHelp/status/1495775151761338378'],[]
UW0463,2022-02-21,50.625841,36.09293,Russia - Belgorod - Striguny,,Tanks moving north,CENINFORES,['https://twitter.com/4emberlen/status/1496093439938764800'],[]
UW0464,2022-02-22,50.406123,36.882179,Russia - Belgorod - Shebekino,,Stationed military logistics,CENINFORES,['https://twitter.com/98Volodymyr/status/1495979198665695232'],[]
UW0465,2022-02-22,51.579223,36.080382,Russia - Kursk Oblast - Selikhovy Dvory,,Military convoys and heavy weaponry on the move,CENINFORES,['https://twitter.com/YWNReporter/status/1496126142272659457'],[]
UW0466,2022-02-22,49.394617,40.399832,Russia - Rostov Oblast - Gusev,,military convoy on the move,CENINFORES,['https://twitter.com/Michael1Sheldon/status/1496101698758225924'],[]
UW0467,2022-02-21,55.187171,34.336873,Russia - Smolensk - Vyazma,,Military and medical convoy,CENINFORES,['https://twitter.com/4emberlen/status/1495693049032331266'],[]
UW0468,2022-02-20,44.927994,37.333719,Russia - Krasnodar Krai - Chemburka,,Military convoy on the move,CENINFORES,['https://twitter.com/GirkinGirkin/status/1495413984530509826'],[]
UW0469,2022-02-21,47.589509,38.864258,Russia - Rostov Oblast - Matveev Kurgan,,Military convoy on side of road,CENINFORES,['https://twitter.com/4emberlen/status/1496127648887619596'],[]
UW0470,2022-02-22,48.497972,38.941556,Ukraine - Luhansk Oblast - Mykhailivka,,Arty traveling east,CENINFORES,['https://twitter.com/GirkinGirkin/status/1496158245077065728'],[]
UW0471,2022-02-21,45.433833,40.585464,Russia - Krasnodar Krai - Kropotkin,,Tanks on rail transport moving west,CENINFORES,['https://twitter.com/GirkinGirkin/status/1495816924801941517'],[]
UW0472,2022-02-22,47.407337,38.941605,Russia - Rostov Oblast - Neklinovsky District,,Tanks on mud road,CENINFORES,['https://twitter.com/fpleitgenCNN/status/1496059846210334731'],[]
UW0473,2022-03-22,48.750731,39.182247,Ukraine - Luhansk Oblast - Schastya,,Footage of shelling,CENINFORES,['https://twitter.com/COUPSURE/status/1496164131833102348'],[]
UW0474,2022-02-22,50.562975,36.460968,Russia - Belgorod - Belgord,,Tanks in field next to road,CENINFORES,['https://twitter.com/YWNReporter/status/1496183319893057542'],[]
UW0475,2022-02-22,48.493691,39.048243,Ukraine - Luhansk Oblast - Bile,,Tanks travelling west,CENINFORES,['https://twitter.com/4emberlen/status/1496220038923272196'],[]
UW0476,2022-02-22,51.012087,35.635538,Russia - Kursk Oblast - Vishnevo,,IFV traveling north,CENINFORES,['https://twitter.com/Archer83Able/status/1496156796217708548'],[]
UW0477,2022-02-22,50.221689,38.106578,Russia - Belgorod Oblast - Valuyki,,Tanks and BBV moving west,CENINFORES,['https://twitter.com/4emberlen/status/1496209530472050699'],[]
UW0478,2022-02-22,50.248492,37.756265,Russia - Belgorod Oblast - None,,Military convoy stationed in the side of the road,CENINFORES,['https://twitter.com/GirkinGirkin/status/1496180287126048769'],[]
UW0479,2022-02-22,50.21993,38.11576,Russia - Belgorod Oblast - Valyuki,,Tanks on the move,CENINFORES,['https://twitter.com/4emberlen/status/1496124505999171586'],[]
UW0480,2022-02-22,50.221814,38.107179,Russia - Belgorod Oblast - Valyuki,,Tanks on the move,CENINFORES,['https://twitter.com/4emberlen/status/1496238941741137933'],[]
UW0481,2022-02-22,51.604874,34.591355,Russia - Kursk Oblast - None,,Tanks moving towards the Ukranian border,CENINFORES,['https://twitter.com/YWNReporter/status/1496249989676380166'],[]
UW0482,2022-02-23,47.798146,40.167945,Russia - Shakhty - None,,Military convoy on the move,CENINFORES,['https://twitter.com/GirkinGirkin/status/1496302983495229440'],[]
UW0483,2022-02-23,50.580115,35.956739,Russia - Belgorod Oblast - Borisovka,,Military convoy on the move,CENINFORES,['https://twitter.com/GirkinGirkin/status/1496326525280468993'],[]
UW0484,2022-02-22,50.672797,36.147839,Russia - Belgorod Oblast - Moshchenoe,,Tanks on the move,CENINFORES,['https://twitter.com/GirkinGirkin/status/1496140293908963329'],[]
UW0485,2022-02-21,45.400302,33.144544,Ukraine - Crimea - None,,Formation of military base,CENINFORES,['https://twitter.com/CSBiggers/status/1496239487021731841'],[]
UW0486,2022-02-23,51.986542,29.157015,Belarus - Velikii Bokov - None,,Formation of military base,CENINFORES,['https://twitter.com/ckoettl/status/1496283968655839240'],[]
UW0487,2022-02-21,50.698546,36.291753,Russia - Belgorod Oblast - Tomarovka,,Satelliate Imargery of helicopters,CENINFORES,['https://twitter.com/ckoettl/status/1495553833023512577/photo/1'],[]
UW0488,2022-02-22,52.082705,30.547159,Russia - Gomel Oblast - None,,Movement of military convoy,CENINFORES,['https://twitter.com/GirkinGirkin/status/1496146336982384643'],[]
UW0489,2022-02-20,51.315182,36.01024,Russia - Kursk Oblast - None,,Movement of heavy weaponry,CENINFORES,['https://twitter.com/GirkinGirkin/status/1495478565923655696'],[]
UW0490,2022-02-22,51.077573,37.209061,Russia - Belgorod Oblast - None,,Convoy with 'Z' insignia,CENINFORES,['https://twitter.com/YWNReporter/status/1496187284177264652'],[]
UW0491,2022-02-23,50.802422,35.658992,Russia - Belgorod Oblast - Krasnaya Yaruga,,Convoy moving west towards border,CENINFORES,['https://twitter.com/GirkinGirkin/status/1496422142648410115'],[]
UW0492,2022-02-23,50.367012,38.41578,Russia - Belgorod Oblast - Nikitovka,,Convoy moving towards the border,CENINFORES,['https://twitter.com/GirkinGirkin/status/1496419288932044800'],[]
UW0502,2022-02-23,50.651933,36.143587,Russia - Belgorod Oblast - Seretino,,Tanks moving towards the Ukrainian border,CENINFORES,['https://twitter.com/GirkinGirkin/status/1496479572333842439'],[]
UW0503,2022-02-23,50.437254,36.380161,Russia - Belgorod Oblast - Oktyabr'skii,,convoy of tanks,CENINFORES,['https://twitter.com/YWNReporter/status/1496452064578347009'],[]
UW0504,2022-02-23,50.578121,35.960031,Russia - Belgorod Oblast - Borisovka,,Tanks moving towards the Ukrainian border,CENINFORES,['https://twitter.com/donetsk2022/status/1496489324208177158'],[]
UW0505,2022-02-15,51.750395,30.292269,Belarus - Gomel Oblast - Dublin,,Russian military camp in southern Belarus,CENINFORES,['https://twitter.com/COUPSURE/status/1496525699267575810?s=20&t=KdhrRKwB4U_nBTFJYvUStA'],[]
UW0506,2022-02-15,47.416683,39.256299,Russia - Rostov Oblast - Chkalova,,Equipment leaving a Russian training ground,CENINFORES,['https://twitter.com/COUPSURE/status/1496375725145874432?s=20&t=KdhrRKwB4U_nBTFJYvUStA'],[]
UW0507,2022-02-22,50.471033,36.331556,Russia - Belgorod Oblast - Krasnyi Oktyabr',,Small camp setup after Feb. 5th around 7 miles from the Ukraine border,CENINFORES,['https://twitter.com/ckoettl/status/1496260001094156288?s=20&t=oxD3uzr6oKtW9D0Xd07RaA'],[]
UW0509,2022-02-22,50.649509,36.526427,Russia - Belgorod Oblast - Belgorod,,Field hospital and military camp in Belgorod,CENINFORES,['https://twitter.com/ckoettl/status/1496261582929674245?s=20&t=oxD3uzr6oKtW9D0Xd07RaA'],[]
UW0510,2022-02-23,52.041278,29.216028,Belarus - Ulitsa Neftestroiteley - Mazyr,,Possible 40N6-series radar mast for an S-300 or S-400,CENINFORES,['https://twitter.com/GirkinGirkin/status/1496565850949787651?s=20&t=4fxy5yNDvSfHsb64Wq4XsQ'],[]
UW0511,2022-02-22,50.560019,36.463069,Russia - Belgorod Oblast - Belgorod,,Russian Military Movements + possible camp with a field hospital,CENINFORES,['https://twitter.com/L_Team10/status/1496187104786845700?s=20&t=KdhrRKwB4U_nBTFJYvUStA'],[]
UW0512,2022-03-22,48.747624,39.261834,Ukraine - Luhansk Oblast - Schastia,,Damage to power plant caused by shelling,CENINFORES,['https://twitter.com/michaelh992/status/1496082009088794625'],[]
UW0513,2022-02-19,45.733893,33.209914,Ukraine - Crimea - Slavne,,Military camp + field hospital (visible in Maxar imagery),CENINFORES,['https://twitter.com/COUPSURE/status/1496048169033117697?s=20&t=KdhrRKwB4U_nBTFJYvUStA'],[]
UW0514,2022-02-22,48.733645,39.237522,Ukraine - Luhansk Oblast - Shchastia,,Footage from film crews taking refuge from shelling,CENINFORES,['https://twitter.com/BackAndAlive/status/1496162101349523461'],[]
UW0518,2022-02-24,49.990083,36.359339,Ukraine - Kharkiv Oblast - Kharkiv,,Russian multiple launch rocket systems (MLRS) impacting reportedly on the outskirts of Kharkiv,CENINFORES,['https://twitter.com/ELINTNews/status/1496705653422895108/video/1'],[]
UW0519,2022-02-24,48.906787,24.712699,Ukraine - Ivano-Frankivsk Oblast - Ivano-Frankivsk,,Bombing in the city,CENINFORES,['https://twitter.com/NewsX/status/1496729252795928578'],[]
UW0520,2022-02-24,46.109509,33.69071,Ukraine - Crimea - Armiansk,,Helicopter movement,CENINFORES,['https://twitter.com/Capt_Navy/status/1496732785771483143'],[]
UW0521,2022-02-24,50.054719,36.360583,Ukraine - Kharkiv Oblast - Kharkiv,,Russian tanks in Kharkiv,CENINFORES,['https://twitter.com/tom_bullock_/status/1496742808358686723'],[]
UW0522,2022-02-24,48.748716,30.218705,Ukraine - Cherkasy Oblast - Uman',,Body covered by blanket in street where bombing was claimed to have happened,CENINFORES,['https://twitter.com/zyundex/status/1496735074720563203?s=21'],[]
UW0523,2022-02-24,49.850806,36.659778,Ukraine - Kharkiv Oblast - Chuhuiv,,Residential area that is claimed to have been bombed,CENINFORES,['https://twitter.com/AlexanderLouri4/status/1496761690561683456?s=20&t=AjOjSdcrpAlShDB8aSAywA'],[]
UW0523,2022-02-24,49.850806,36.659778,Ukraine - Kharkiv Oblast - Chuhuiv,,Residential area that is claimed to have been bombed,CENINFORES,['https://twitter.com/AlexanderLouri4/status/1496761690561683456?s=20&t=9ggNlm9Ee7pWqGyL3Vb09w'],[]
UW0523,2022-02-24,49.850806,36.659778,Ukraine - Kharkiv Oblast - Chuhuiv,,Residential area that is claimed to have been bombed,CENINFORES,['https://twitter.com/AlexanderLouri4/status/1496761690561683456?s=20&t=AjOjSdcrpAlShDB8aSAywA'],[]
UW0526,2022-02-24,50.054029,36.360422,Ukraine - Kharkiv Oblast - Kharkiv,,Russian forces on the outskirts of Kharkiv,CENINFORES,['https://twitter.com/Caucasuswar/status/1496742212947820545'],[]
UW0527,2022-02-24,46.479627,30.691307,Ukraine - Odessa Oblast - Odesa,,Smoke from explosion in the background,CENINFORES,['https://twitter.com/KyleJGlen/status/1496773833839230977'],[]
UW0528,2022-02-24,47.184869,37.303739,Ukraine - Donetsk Oblast - Nikolske,,Tanks stationed in the side of the road,CENINFORES,['https://twitter.com/sebshukla/status/1496770773612371971'],[]
UW0529,2022-02-24,46.74794,33.40203,Ukraine - Kherson Oblast - Tavriis'k,,Tanks moving towards north Crimea,CENINFORES,['https://twitter.com/RALee85/status/1496790012242837506'],[]
UW0530,2022-02-24,47.775501,37.239502,Ukraine - Donetsk Oblast - Vuhledar,,Artillery strike at hospital,CENINFORES,['https://twitter.com/Volnovakha/status/1496789425287839746'],[]
UW0531,2022-02-24,50.04205,36.34127,Ukraine - Kharkiv Oblast - Kharkiv,,Fighting in the background,CENINFORES,['https://twitter.com/RALee85/status/1496774496790929412'],[]
UW0532,2022-02-24,50.269454,36.285998,Ukraine - Kharkiv Oblast - Alisivka,,Destroyed Ukrainian military equipment,CENINFORES,['https://twitter.com/oryxspioenkop/status/1496788629527564293'],[]
UW0533,2022-02-24,47.10064,37.47667,Ukraine - Donetsk Oblast - Mariupol',,Destroyed radar base,CENINFORES,['https://twitter.com/200_zoka/status/1496763694159695873'],[]
UW0534,2022-02-24,48.89714,24.71519,Ukraine - Ivano-Frankivsk Oblast - Ivano-Frankivsk,,Explosion in the background,CENINFORES,['https://twitter.com/dzyga71/status/1496719052592631809'],[]
UW0535,2022-02-24,48.89714,24.71519,Ukraine - Ivano-Frankivsk Oblast - Ivano-Frankivsk,,Explosion near the airport,CENINFORES,['https://twitter.com/RALee85/status/1496735344221470721'],[]
UW0536,2022-02-24,50.43839,36.576863,Russia - Belgorod - Nikol'skoe,,Missile launches,CENINFORES,['https://twitter.com/Michael1Sheldon/status/1496807616605040647'],[]
UW0537,2022-02-24,48.510217,39.365389,Ukraine - Luhansk Oblast - Luhansk,,Helicopters over Luhansk,CENINFORES,['https://twitter.com/Michael1Sheldon/status/1496731220138414082'],[]
UW0538,2022-02-24,48.742085,39.229677,Ukraine - Luhansk Oblast - Schastia,,Explosions in the background,CENINFORES,['https://twitter.com/ua_industrial/status/1496709775886884871'],[]
UW0539,2022-02-24,49.829793,36.681975,Ukraine - Kharkiv Oblast - Chuhuiv,,Bombing in the city,CENINFORES,['https://twitter.com/Michael1Sheldon/status/1496717647089651716'],[]
UW0540,2022-02-24,50.583768,30.254727,Ukraine - Kyiv Oblast - Hostomel,,Helicopters moving towards airfield,CENINFORES,['https://twitter.com/DeanoBeano1/status/1496806993448902658'],[]
UW0541,2022-02-24,50.054224,36.360505,Ukraine - Kharkiv Oblast - Kharkiv,,Destroyed military equipment,CENINFORES,['https://twitter.com/Kyruer/status/1496813193011908609'],[]
UW0542,2022-02-24,50.566944,30.275,Ukraine - Kyiv Oblast - Hostomel',,Helicopter bombing,CENINFORES,['https://twitter.com/RALee85/status/1496809383929524230'],[]
UW0543,2022-02-24,46.761023,33.386847,Ukraine - Kherson Oblast - Nova Kakhovka,,Russian military movement,CENINFORES,['https://twitter.com/tom_bullock_/status/1496804754395213832'],[]
UW0544,2022-02-24,50.567716,30.203996,Ukraine - Kyiv Oblast - Bucha,,bombing in the background,CENINFORES,['https://twitter.com/666_mancer/status/1496818023306567681'],[]
UW0545,2022-02-24,52.10532,31.780053,Ukraine - Chernihiv Oblast - Sen'kivka,,Russian forces entering Ukraine,CENINFORES,['https://twitter.com/pmakela1/status/1496781698280865794'],[]
UW0546,2022-02-24,46.773653,33.374388,Ukraine - Kherson Oblast - Nova Kakhovka,,Helicopter and tanks arriving at Kakhovka Hydroelectric Power Plant,CENINFORES,['https://twitter.com/RALee85/status/1496801532066635779'],[]
UW0547,2022-02-24,50.604956,30.494393,Ukraine - Kyiv Oblast - Vyshhorod,,Helicopters using flares,CENINFORES,['https://twitter.com/Archer83Able/status/1496821978669502471'],[]
UW0548,2022-02-24,50.136475,30.75581,Ukraine - Kyiv Oblast - Ukrainka,,Helicopter bombing,CENINFORES,['https://twitter.com/Archer83Able/status/1496828953515937794'],[]
UW0549,2022-02-24,48.647528,39.038608,Ukraine - Luhansk Oblast - Dovhe,,"""LNR"" press video showing armoured vehicles and pontoon bridge over Seversky Donets river",CENINFORES,['https://t.me/millnr/7240'],[]
UW0550,2022-02-24,50.5977,30.477811,Ukraine - Kyiv Oblast - Vyshhorod,,Helicopters moving towards airfield,CENINFORES,['https://twitter.com/AuroraIntel/status/1496814717964324865'],[]
UW0551,2022-02-24,46.678419,32.719509,Ukraine - Kherson Oblast - Antonivka,,Tanks after crossing Antonovsky bridge,CENINFORES,['https://twitter.com/aldin_ww/status/1496853954558320642'],[]
UW0552,2022-02-24,50.27814,36.949915,Ukraine - Kharkiv Oblast - Vovchans'k,,Military convoy,CENINFORES,['https://twitter.com/RALee85/status/1496841037360340993?s=20&t=dTwmawBnF1c6TRjXx7zNuw'],[]
UW0553,2022-02-24,50.238472,30.725583,Ukraine - Kyiv Oblast - Kozyn,,Helicopter downing,CENINFORES,['https://twitter.com/GirkinGirkin/status/1496838814324641792'],[]
UW0554,2022-02-24,50.904909,34.807647,Ukraine - Sumy Oblast - Sumy,,Military equipment in Sumy,CENINFORES,['https://twitter.com/200_zoka/status/1496875924779937793?s=20&t=Mh_9AYiKPim3KiINrxUwoQ'],[]
UW0555,2022-02-24,50.553249,30.254064,Ukraine - Kyiv Oblast - Bucha,,Sound of missiles,CENINFORES,['https://twitter.com/NeilPHauer/status/1496890420260974596?s=20&t=Mh_9AYiKPim3KiINrxUwoQ'],[]
UW0556,2022-02-24,50.30907,34.878152,Ukraine - Sumy Oblast - Okhtyrka,,Gunfire in the streets,CENINFORES,['https://twitter.com/BabakTaghvaee/status/1496882689261068296'],[]
UW0557,2022-02-24,49.831973,36.650591,Ukraine - Kharkiv Oblast - Chuhuiv,,Chuhuiv Airbase on fire,CENINFORES,['https://twitter.com/planet/status/1496901514996031510?s=20&t=fLA9HXcvePcG3oh_T9T5qA'],[]
UW0558,2022-02-24,46.762033,33.385764,Ukraine - Kherson Oblast - Nova Kakhovka,,Military convoy in Kherson,CENINFORES,['https://twitter.com/COUPSURE/status/1496903553109086210?s=20&t=Mh_9AYiKPim3KiINrxUwoQ'],[]
UW0559,2022-02-24,51.388659,30.110564,Ukraine - Kyiv Oblast - Pryp'yat',,Russian military equipment near the Chernobyl nuclear power plant,CENINFORES,['https://twitter.com/ThomasVLinge/status/1496907711602204673?s=20&t=Mh_9AYiKPim3KiINrxUwoQ'],[]
UW0560,2022-02-24,51.19601,33.828731,Ukraine - Sumy Oblast - Buryn,,Russian military equipment in Buryn,CENINFORES,['https://twitter.com/MarQs__/status/1496851744227303425'],[]
UW0562,2022-02-24,50.881845,34.784687,Ukraine - Sumy Oblast - Sumy,,Russian military equipment destroyed,CENINFORES,['https://twitter.com/sternenko/status/1496892418066690049'],[]
UW0563,2022-02-24,51.789645,23.655737,Belarus - Brest - Dubitsa,,Russian military moving north,CENINFORES,['https://twitter.com/MotolkoHelp/status/1496937266668883974'],[]
UW0564,2022-02-24,46.19139,33.65386,Ukraine - Crimea - Perekop,,Destroyed Russian military equipment,CENINFORES,['https://twitter.com/Danspiun/status/1496962298342109195'],[]
UW0565,2022-02-24,50.308332,34.880522,Ukraine - Sumy Oblast - Okhtyrka,,Damage to civilian houses,CENINFORES,['https://www.youtube.com/watch?v=ywUryvex00w&ab_channel=DFRLMichaelSheldon'],[]
UW0566,2022-02-24,47.120915,37.680973,Ukraine - Donetsk Oblast - Mariupol,,Civilian casualty,CENINFORES,['https://twitter.com/N_Waters89/status/1496846533085564929'],[]
UW0567,2022-02-25,50.518652,30.490107,Ukraine - Kyiv Oblast - Kyiv,,Tank driving over civilian car,CENINFORES,['https://twitter.com/AlexKhrebet/status/1497123956318523392'],[]
UW0568,2022-02-24,50.593667,30.221417,Ukraine - Kyiv Oblast - Hostomel,,Russian VDV taking up position outside airport,CENINFORES,['https://twitter.com/NatashaBertrand/status/1496849053824471041'],[]
UW0569,2022-02-24,51.014557,34.584061,Ukraine - Sumy Oblast - Postol'ne,,Russian military movement,CENINFORES,['https://twitter.com/200_zoka/status/1496819885539831810'],[]
UW0570,2022-02-25,50.312331,34.865166,Ukraine - Sumy Oblast - Okhtyrka,,Russian military equipment abandoned,CENINFORES,['https://twitter.com/andreivaitovich/status/1497004870112452613'],[]
UW0571,2022-02-25,46.839778,35.37275,Ukraine - Zaporizhzhia Oblast - Melitopol,,"Possible Russian spetsnaz forces driving north on Bohdana Khmelnytskoho Ave in Melitopol, Zaporizhia Oblast, Ukraine.",CENINFORES,['https://twitter.com/RALee85/status/1497135346387148820?s=20&t=HVISarK0tA1dTFzX42BCNA'],[]
UW0572,2022-02-25,50.405042,30.645057,Ukraine - Kyiv Oblast - Kyiv,,Destroyed Civilian building,CENINFORES,['https://twitter.com/Archer83Able/status/1497045708788011008'],[]
UW0573,2022-02-25,50.40597,30.6145,Ukraine - Kyiv Oblast - Kyiv,,Interception of shelling,CENINFORES,['https://twitter.com/IdeologyWars/status/1497038963067875328'],[]
UW0574,2022-02-25,50.395965,30.599661,Ukraine - Kyiv Oblast - Kyiv,,Interception of shelling,CENINFORES,['https://twitter.com/IdeologyWars/status/1497039245277642752'],[]
UW0575,2022-02-24,50.593662,30.221412,Ukraine - Kyiv Oblast - Hostomel',,Russian military attack,CENINFORES,['https://twitter.com/RALee85/status/1496977994019082244'],[]
UW0576,2022-02-24,50.57727,30.2659,Ukraine - Kyiv Oblast - Hostomel',,Russian soldiers moving,CENINFORES,['https://twitter.com/200_zoka/status/1496933410950025217'],[]
UW0577,2022-02-25,50.518781,30.490194,Ukraine - Kyiv Oblast - Kyiv,,Tank driving over civilian car,CENINFORES,['https://twitter.com/Bachodolidze/status/1497140092896432129?s=20&t=7nIoG_IDIBkYU9qKRJYrKQ'],[]
UW0578,2022-02-25,50.518715,30.490184,Ukraine - Kyiv Oblast - Kyiv,,aftermath of tank driving over civilian car,CENINFORES,['https://twitter.com/no_itsmyturn/status/1497136412046544896'],[]
UW0579,2022-02-25,46.676,32.719,Ukraine - Kherson Oblast - Antonivka,,Destroyed military equipment,CENINFORES,['https://twitter.com/GirkinGirkin/status/1497112867618889728'],[]
UW0580,2022-02-24,48.520656,39.278686,Ukraine - Luhansk Oblast - Rozkishne,,Russian Military Movements,CENINFORES,['https://twitter.com/GirkinGirkin/status/1496992981349453829'],[]
UW0581,2022-02-25,49.987324,36.261205,Ukraine - Kharkiv Oblast - Kharkiv,,Missile in street,CENINFORES,['https://t.me/vorposte/13720'],[]
UW0584,2022-02-25,50.584124,30.543766,Ukraine - Kyiv Oblast - Vyshhorod,,Destroyed bridge,CENINFORES,['https://twitter.com/ralee85/status/1497158075723264001?s=21'],[]
UW0585,2022-02-25,48.951741,40.312651,Russia - Rostov Oblast - None,,Fire at Millerovo Airbase following reported Ukrainian missile strike,CENINFORES,['https://twitter.com/IAPonomarenko/status/1497128097140858901/photo/1'],[]
UW0586,2022-02-25,50.093734,36.263501,Ukraine - Kharkiv Oblast - Kharkiv,,Destroyed Russian Grad MLRS,CENINFORES,['https://twitter.com/CITeam_en/status/1497179839245262883'],[]
UW0591,2022-02-24,43.318518,45.697174,Russia - Chechenya - Grozny,,Chechen forces amassing and leaving,CENINFORES,['https://twitter.com/200_zoka/status/1497177588925612035'],[]
UW0596,2022-02-24,49.850806,36.659778,Ukraine - Kharkiv Oblast - Chuhuiv,,"Civilian casualty, Chugiuv",CENINFORES,['https://twitter.com/AFPphoto/status/1496804838637768707'],[]
UW0597,2022-02-25,43.319683,45.694873,Russia - Chechenya - Grozny,,Chechen forces amassing,CENINFORES,['https://twitter.com/NeilPHauer/status/1497196542138196000'],[]
UW0598,2022-02-25,50.093734,36.263501,Ukraine - Kharkiv Oblast - Kharkiv,,Destroyed Russian Grad MLRS also seen in UW0586,CENINFORES,['https://twitter.com/radiosvoboda/status/1497161995434536969?s=20&t=hk63ejZ3jrJtYElaEjexNQ'],[]
UW0599,2022-02-25,50.518558,30.490252,Ukraine - Kyiv Oblast - Kyiv,,Heavy Fighting in Obolon District,CENINFORES,['https://twitter.com/RALee85/status/1497200521337208838'],[]
UW0601,2022-02-25,50.308682,34.872347,Ukraine - Sumy Oblast - Okhtyrka,,Missile in ground,CENINFORES,['https://twitter.com/666_mancer/status/1497190914325987329'],[]
UW0602,2022-02-25,50.3098,34.8696,Ukraine - Sumy Oblast - Okhtyrka,,Civilian casualties at kindergarten,CENINFORES,['https://twitter.com/futureisnottmr/status/1497216415757000705'],[]
UW0605,2022-02-25,51.497115,31.315838,Ukraine - Chernihiv Oblast - Chernihiv,,Security Service of Ukraine Office on fire following alleged strike.,CENINFORES,['https://twitter.com/KSergatskova/status/1497218877297680384'],[]
